X,Y,record_id,street_num,street_dir,street_name,date_status,address_id,parcel_id,lon,lat,ObjectId
-83.087269,42.380564,VPO2011-03556,751,,CLAIRMOUNT,2022/05/04 04:00:00+00,344110,04002447.,-83.087269,42.380564,1
-83.058214,42.438002,VPO2023-00230,19455,,EUREKA,2023/02/21 05:00:00+00,291700,13018561-2,-83.058214,42.438002,2
-83.211644,42.443471,VPO2011-05004,20543,,FERGUSON,2023/04/05 04:00:00+00,73135,22063524.,-83.211644,42.443471,3
-83.233315,42.363661,VPO2023-00232,9346,,AUBURN,2023/02/15 05:00:00+00,173604,22092326-7,-83.233315,42.363661,4
-83.220578,42.344355,VPO2011-05239,7264,,FAUST,2023/09/21 04:00:00+00,161210,22078398.,-83.220578,42.344355,5
-83.164606,42.366809,VPO2023-00234,9547,,MENDOTA,2023/02/15 05:00:00+00,202556,18017308.,-83.164606,42.366809,6
-83.095327,42.318885,VPO2011-06080,1601,,CLARK,2023/12/19 05:00:00+00,178373,14010191.,-83.095327,42.318885,7
-83.210915,42.408645,VPO2023-00235,16103,,BILTMORE,2023/02/15 05:00:00+00,138021,22064476.,-83.210915,42.408645,8
-83.106757,42.383611,VPO2011-06245,2005,,LAWRENCE,2024/02/12 05:00:00+00,51115,08003328.,-83.106757,42.383611,9
-83.1299,42.412303,VPO2023-00236,16250,,LAWTON,2023/02/15 05:00:00+00,29027,12006207.,-83.1299,42.412303,10
-83.257316,42.415897,VPO2011-07779,17224,,LAHSER,2023/09/13 04:00:00+00,390727,22113377.,-83.257316,42.415897,11
-83.008379,42.344628,VPO2023-00237,6431,E,JEFFERSON,2023/02/15 05:00:00+00,536396,15000032.,-83.008379,42.344628,12
-83.093189,42.371747,VPO2011-09852,1612,W,EUCLID,2023/12/15 05:00:00+00,535612,08002127.,-83.093189,42.371747,13
-83.109401,42.356276,VPO2023-00238,6855,,VINEWOOD,2023/02/15 05:00:00+00,349738,14001548.,-83.109401,42.356276,14
-83.093864,42.37104,VPO2011-09914,1667,W,EUCLID,2023/12/15 05:00:00+00,58397,08002057.,-83.093864,42.37104,15
-82.945772,42.414594,VPO2023-00239,9661,,EVERTS,2023/03/01 05:00:00+00,296518,21072700.,-82.945772,42.414594,16
-83.090805,42.372159,VPO2011-09936,1463,W,EUCLID,2023/12/11 05:00:00+00,59153,06001860.,-83.090805,42.372159,17
-83.008714,42.360951,VPO2023-00240,2900,,FIELD,2023/03/01 05:00:00+00,546475,17013598.,-83.008714,42.360951,18
-83.094214,42.36116,VPO2011-10192,2218,,FERRY PARK,2022/11/01 04:00:00+00,539191,10000997.,-83.094214,42.36116,19
-83.082438,42.354765,VPO2023-00243,5278,,AVERY,2023/03/01 05:00:00+00,46808,08007056.,-83.082438,42.354765,20
-83.143804,42.377902,VPO2012-00618,12127,,PRAIRIE,2023/05/16 04:00:00+00,75706,16023411.,-83.143804,42.377902,21
-82.932802,42.36297,VPO2023-00244,233,,ASHLAND,2023/02/16 05:00:00+00,337972,21062586.,-82.932802,42.36297,22
-82.948089,42.396652,VPO2012-01569,4682,,BEACONSFIELD,2023/04/11 04:00:00+00,310310,21065668.,-82.948089,42.396652,23
-83.03122,42.422443,VPO2023-00245,6820,,EDGETON,2023/03/01 05:00:00+00,266353,15003627.,-83.03122,42.422443,24
-82.963363,42.400659,VPO2012-01780,5732,,LAKEWOOD,2023/02/09 05:00:00+00,312514,21054703.,-82.963363,42.400659,25
-83.008374,42.355082,VPO2023-00246,1840,,HELEN,2023/02/16 05:00:00+00,330213,15008722.002L,-83.008374,42.355082,26
-83.168177,42.442964,VPO2012-01844,20253,,PINEHURST,2023/10/17 04:00:00+00,15824,16044074.,-83.168177,42.442964,27
-82.988292,42.357654,VPO2023-00247,1091,,HIBBARD,2023/03/01 05:00:00+00,348219,19008965-72,-82.988292,42.357654,28
-83.194405,42.437438,VPO2012-03842,19819,,JAMES COUZENS,2023/10/25 04:00:00+00,380910,22019523-31,-83.194405,42.437438,29
-83.000633,42.381683,VPO2023-00251,5044,,MCCLELLAN,2023/03/01 05:00:00+00,301030,19006842.,-83.000633,42.381683,30
-83.143216,42.428511,VPO2012-04532,18630,,SANTA ROSA,2023/09/19 04:00:00+00,6415,16020244.,-83.143216,42.428511,31
-83.159267,42.400521,VPO2023-00252,15014,,WYOMING,2023/03/01 05:00:00+00,485985,16037444.,-83.159267,42.400521,32
-83.188248,42.40674,VPO2012-04923,15757,,STRATHMOOR,2022/02/24 05:00:00+00,142174,22038336.,-83.188248,42.40674,33
-83.167347,42.416484,VPO2023-00254,10621,,MCNICHOLS,2023/02/27 05:00:00+00,535135,16008048-9,-83.167347,42.416484,34
-82.964168,42.365283,VPO2012-05322,630,,LYCASTE,2023/02/15 05:00:00+00,540037,21044901.,-82.964168,42.365283,35
-83.147278,42.417339,VPO2023-00255,7546,,MCNICHOLS,2023/02/27 05:00:00+00,536532,16008259.,-83.147278,42.417339,36
-83.246621,42.359605,VPO2014-00516,9028,,TRINITY,2022/10/26 04:00:00+00,167665,22108319.,-83.246621,42.359605,37
-83.099706,42.322973,VPO2023-00256,2304,,MCKINSTRY,2023/02/20 05:00:00+00,219385,14000442.,-83.099706,42.322973,38
-82.969289,42.421031,VPO2014-00539,14825,,HOUSTON-WHITTIER,2023/08/14 04:00:00+00,77766,21014565.,-82.969289,42.421031,39
-83.160567,42.267169,VPO2023-00257,2940,,ELECTRIC,2023/02/20 05:00:00+00,910,20014156-7,-83.160567,42.267169,40
-83.039189,42.34187,VPO2015-00106,1325,,MAPLE,2023/10/12 04:00:00+00,411278,05000618-21,-83.039189,42.34187,41
-83.203383,42.422864,VPO2023-00258,15841,,CURTIS,2023/03/31 04:00:00+00,65368,22014732-3,-83.203383,42.422864,42
-83.048769,42.36323,VPO2015-00371,1599,EAST,WARREN,2022/12/22 05:00:00+00,535585,07001366-98,-83.048769,42.36323,43
-83.130043,42.415674,VPO2023-00259,16846,,LAWTON,2023/02/20 05:00:00+00,28412,12006238.,-83.130043,42.415674,44
-83.094446,42.330805,VPO2016-00285,810,W,GRAND BLVD,2024/01/10 05:00:00+00,151587,12009814.,-83.094446,42.330805,45
-82.972668,42.424047,VPO2023-00261,14515,,YOUNG,2023/02/20 05:00:00+00,73919,21015927.,-82.972668,42.424047,46
-83.165835,42.412846,VPO2017-00109,16555,,MENDOTA,2023/04/27 04:00:00+00,98106,16043396.,-83.165835,42.412846,47
-82.974334,42.439722,VPO2023-00264,14658,,GRATIOT,2023/02/20 05:00:00+00,351596,21028526.,-82.974334,42.439722,48
-83.12291,42.389438,VPO2017-00639,2752,,GLENDALE,2023/05/21 04:00:00+00,37988,10003973.,-83.12291,42.389438,49
-82.992304,42.369982,VPO2023-00265,3238,,MCCLELLAN,2023/02/21 05:00:00+00,335205,19006733.,-82.992304,42.369982,50
-82.985259,42.390891,VPO2023-00267,11457,,SHOEMAKER,2023/03/01 05:00:00+00,,,-82.985259,42.390891,51
-83.01384,42.360712,VPO2023-00269,3101,,CANTON,2023/03/01 05:00:00+00,542125,15010471.,-83.01384,42.360712,52
-83.256565,42.416364,VPO2023-00270,21702,WEST,GRAND RIVER,2023/02/22 05:00:00+00,535949,22007830.,-83.256565,42.416364,53
-82.993359,42.377778,VPO2023-00272,4254,,CADILLAC,2023/04/05 04:00:00+00,299772,19005035.,-82.993359,42.377778,54
-83.00989,42.3847,VPO2023-00273,5786,,FISCHER,2023/03/10 05:00:00+00,37992,19010668.,-83.00989,42.3847,55
-83.15984,42.413485,VPO2023-00274,16590,,WYOMING,2023/03/01 05:00:00+00,470100,16037590.,-83.15984,42.413485,56
-82.96975,42.437301,VPO2023-00275,14797,,LAPPIN,2023/03/01 05:00:00+00,147893,21021824.,-82.96975,42.437301,57
-82.957883,42.404286,VPO2023-00280,5916,,WAYBURN,2023/03/01 05:00:00+00,322871,21063506.,-82.957883,42.404286,58
-83.152372,42.327523,VPO2023-00282,4369,,WESTERN,2023/02/23 05:00:00+00,161490,20010810-2,-83.152372,42.327523,59
-83.151823,42.327555,VPO2023-00283,4360,,WESTERN,2023/02/23 05:00:00+00,161508,20010782.,-83.151823,42.327555,60
-82.983622,42.435173,VPO2023-00284,13713,,SEVEN MILE,2023/03/01 05:00:00+00,535366,21021097.,-82.983622,42.435173,61
-83.154586,42.403212,VPO2023-00285,15341,,CHERRYLAWN,2023/03/01 05:00:00+00,91379,16033382.,-83.154586,42.403212,62
-83.087489,42.440175,VPO2023-00286,1619,E,STATE FAIR,2023/02/24 05:00:00+00,535617,09008146.,-83.087489,42.440175,63
-83.075834,42.414029,VPO2023-00287,13858,,FLEMING,2023/03/01 05:00:00+00,543918,09014453.,-83.075834,42.414029,64
-83.158587,42.366443,VPO2023-00288,10000,,Chicago,2023/02/24 05:00:00+00,350517,18005685-719,-83.158587,42.366443,65
-83.15928,42.41193,VPO2023-00289,16253,,KENTUCKY,2023/03/01 05:00:00+00,546402,16036971.,-83.15928,42.41193,66
-83.25752,42.400441,VPO2023-00290,22030,,FENKELL,2023/07/25 04:00:00+00,545497,22011237.,-83.25752,42.400441,67
-83.166233,42.359617,VPO2023-00291,8852,,MANOR,2023/03/01 05:00:00+00,199717,18018107.,-83.166233,42.359617,68
-83.255831,42.414972,VPO2023-00293,21640,W,MCNICHOLS,2023/03/01 05:00:00+00,99568,22013577.,-83.255831,42.414972,69
-82.950256,42.40688,VPO2023-00294,5903,,CHATSWORTH,2023/03/01 05:00:00+00,322261,21068989.,-82.950256,42.40688,70
-82.950121,42.406606,VPO2023-00295,5807,,CHATSWORTH,2023/03/01 05:00:00+00,322533,21068990.,-82.950121,42.406606,71
-83.206292,42.374509,VPO2023-00296,11739,,METTETAL,2023/03/01 05:00:00+00,213051,22060675.,-83.206292,42.374509,72
-82.962296,42.433766,VPO2023-00297,15430,,EASTWOOD,2023/03/14 04:00:00+00,154968,21019346.,-82.962296,42.433766,73
-83.020652,42.36932,VPO2023-00301,6678,,GRATIOT,2023/03/01 05:00:00+00,540118,15000337.,-83.020652,42.36932,74
-82.995682,42.413005,VPO2023-00302,11826,,SANFORD,2023/03/01 05:00:00+00,233702,21012068.,-82.995682,42.413005,75
-82.926521,42.420042,VPO2023-00304,6331,,FARMBROOK,2023/03/01 05:00:00+00,309991,21078109.,-82.926521,42.420042,76
-83.097357,42.323164,VPO2023-00306,4327,,TOLEDO,2023/03/01 05:00:00+00,219438,14000437.,-83.097357,42.323164,77
-83.172554,42.444712,VPO2023-00307,20517,,APPOLINE,2023/03/21 04:00:00+00,18567,22021373.,-83.172554,42.444712,78
-83.113932,42.358927,VPO2023-00308,7650,W,GRAND RIVER,2023/03/06 05:00:00+00,536534,14001645.,-83.113932,42.358927,79
-83.095218,42.365109,VPO2023-00311,7490,,HANOVER,2023/03/03 05:00:00+00,54096,08009168.,-83.095218,42.365109,80
-83.007824,42.390002,VPO2023-00312,9203,,Gratiot,2023/03/02 05:00:00+00,409797,19001712-3,-83.007824,42.390002,81
-82.949048,42.415567,VPO2023-00314,10230,,WHITTIER,2023/03/03 05:00:00+00,536701,21072276.,-82.949048,42.415567,82
-82.949378,42.415665,VPO2023-00316,10240,,WHITTIER,2023/03/03 05:00:00+00,350576,21072279-80,-82.949378,42.415665,83
-83.044367,42.365465,VPO2023-00319,2125,,THEODORE,2023/03/06 05:00:00+00,260849,09002560.,-83.044367,42.365465,84
-83.032771,42.350841,VPO2023-00320,2228,,GRATIOT,2023/03/11 05:00:00+00,434156,09001283.,-83.032771,42.350841,85
-83.097271,42.317331,VPO2023-00321,1543,,Lansing,2023/04/25 04:00:00+00,178246,16009813.,-83.097271,42.317331,86
-83.191156,42.368895,VPO2023-00322,9959,,TERRY,2023/03/11 05:00:00+00,207374,22043247.,-83.191156,42.368895,87
-83.191232,42.371651,VPO2023-00324,11387,,TERRY,2023/03/11 05:00:00+00,211958,22043224.,-83.191232,42.371651,88
-83.060921,42.427938,VPO2023-00325,18409,,SUNSET,2023/03/11 05:00:00+00,297189,13019831.,-83.060921,42.427938,89
-83.251377,42.432087,VPO2023-00326,19345,,BLACKSTONE,2023/03/06 05:00:00+00,98779,22109268.,-83.251377,42.432087,90
-82.997382,42.444054,VPO2023-00329,20020,,HAMBURG,2023/03/06 05:00:00+00,171358,21033840.,-82.997382,42.444054,91
-83.137156,42.405735,VPO2023-00330,15480,,HOLMUR,2023/03/11 05:00:00+00,30410,12012424.,-83.137156,42.405735,92
-83.021129,42.393874,VPO2023-00332,8076,,BADGER,2023/03/07 05:00:00+00,284792,17001479.,-83.021129,42.393874,93
-83.211995,42.364396,VPO2023-00333,9377,,MEMORIAL,2023/03/07 05:00:00+00,200171,22067870.,-83.211995,42.364396,94
-83.171675,42.358429,VPO2023-00334,13001,,JOY,2023/03/07 05:00:00+00,537274,22002078-9,-83.171675,42.358429,95
-83.052969,42.431069,VPO2023-00335,18690,,FENELON,2023/03/07 05:00:00+00,296022,13016980.,-83.052969,42.431069,96
-83.102828,42.333892,VPO2023-00336,3562,,SCOTTEN,2023/03/07 05:00:00+00,149990,14009587.,-83.102828,42.333892,97
-83.198627,42.390221,VPO2023-00338,14151,,GREENFIELD,2023/03/07 05:00:00+00,537634,22050902.,-83.198627,42.390221,98
-83.200039,42.426618,VPO2023-00342,18517,,GREENFIELD,2023/03/11 05:00:00+00,62446,22050625.,-83.200039,42.426618,99
-83.02044,42.362373,VPO2023-00343,3634,,MELDRUM,2023/03/11 05:00:00+00,330835,15013580.,-83.02044,42.362373,100
-83.142471,42.41076,VPO2023-00344,16156,,SANTA ROSA,2023/03/08 05:00:00+00,104228,16020105.,-83.142471,42.41076,101
-83.19542,42.405374,VPO2023-00348,15701,,SUSSEX,2023/03/11 05:00:00+00,141530,22046716.,-83.19542,42.405374,102
-83.025755,42.433196,VPO2023-00349,7587,,BRENTWOOD,2023/03/11 05:00:00+00,263651,15004844.,-83.025755,42.433196,103
-83.11252,42.437124,VPO2023-00351,908,W,LANTZ,2023/03/09 05:00:00+00,54979,01007534.,-83.11252,42.437124,104
-83.1371,42.380316,VPO2023-00352,4801,,STURTEVANT,2023/03/10 05:00:00+00,76618,14004706.,-83.1371,42.380316,105
-82.972502,42.445947,VPO2023-00355,14642,,BRINGARD,2023/03/10 05:00:00+00,191772,21026071.,-82.972502,42.445947,106
-83.073591,42.3372,VPO2023-00356,2908,,HARRISON,2023/03/10 05:00:00+00,254284,08006687.,-83.073591,42.3372,107
-83.13614,42.405426,VPO2023-00358,15456,,DEXTER,2023/03/11 05:00:00+00,7180,12010646-54,-83.13614,42.405426,108
-83.142554,42.412006,VPO2023-00360,16248,,SANTA ROSA,2023/03/11 05:00:00+00,104293,16020118.,-83.142554,42.412006,109
-83.143688,42.413051,VPO2023-00361,16546,,MONICA,2023/03/11 05:00:00+00,84650,16021248.,-83.143688,42.413051,110
-83.144132,42.413335,VPO2023-00362,16569,,MONICA,2023/03/11 05:00:00+00,84710,16021750.,-83.144132,42.413335,111
-83.14412,42.412651,VPO2023-00363,16519,,MONICA,2023/03/11 05:00:00+00,104284,16021757.,-83.14412,42.412651,112
-83.097835,42.424124,VPO2023-00365,17901,,BRUSH,2023/03/11 05:00:00+00,67056,01008837.,-83.097835,42.424124,113
-83.213269,42.422297,VPO2023-00366,18084,,LINDSAY,2023/03/11 05:00:00+00,79708,22066867.,-83.213269,42.422297,114
-83.157263,42.375279,VPO2023-00368,11720,,KENTUCKY,2023/03/13 04:00:00+00,205748,18015714.,-83.157263,42.375279,115
-82.996507,42.366395,VPO2023-00370,2958,,FISCHER,2023/03/23 04:00:00+00,334215,19010454.,-82.996507,42.366395,116
-83.239027,42.427306,VPO2023-00371,18903,,EVERGREEN,2023/05/12 04:00:00+00,103608,22096126.,-83.239027,42.427306,117
-83.143591,42.410938,VPO2023-00372,16170,,MONICA,2023/04/14 04:00:00+00,98157,16021228.,-83.143591,42.410938,118
-83.239221,42.372139,VPO2023-00373,20222,,PLYMOUTH,2023/03/23 04:00:00+00,539045,22005600-9,-83.239221,42.372139,119
-83.161196,42.266416,VPO2023-00374,3004,,ELECTRIC,2023/03/23 04:00:00+00,782,20014146.,-83.161196,42.266416,120
-83.003661,42.37451,VPO2023-00375,4410,,BURNS,2023/03/14 04:00:00+00,9599,17006253.,-83.003661,42.37451,121
-83.1167,42.377453,VPO2023-00377,2980,,GLYNN,2023/04/05 04:00:00+00,39106,12003039.,-83.1167,42.377453,122
-83.222109,42.441752,VPO2023-00378,20268,,ROSEMONT,2023/04/05 04:00:00+00,96440,22076715.,-83.222109,42.441752,123
-83.136918,42.372595,VPO2023-00379,11370,,BELLETERRE,2023/04/05 04:00:00+00,73831,16018408.,-83.136918,42.372595,124
-83.106455,42.433379,VPO2023-00380,19177,,DANBURY,2023/04/05 04:00:00+00,58732,01009227.,-83.106455,42.433379,125
-83.070696,42.421921,VPO2023-00381,17456,,MCDOUGALL,2023/04/05 04:00:00+00,280403,09010502.,-83.070696,42.421921,126
-83.016487,42.384437,VPO2023-00382,5939,,MAXWELL,2023/03/15 04:00:00+00,36968,17008524.,-83.016487,42.384437,127
-83.078482,42.421911,VPO2023-00383,17459,,GODDARD,2023/03/15 04:00:00+00,280543,09014316.,-83.078482,42.421911,128
-83.03797,42.4209,VPO2023-00385,17236,,MT ELLIOTT,2023/03/15 04:00:00+00,538342,15014260-7,-83.03797,42.4209,129
-83.081255,42.443082,VPO2023-00386,20145,,CONANT,2023/03/15 04:00:00+00,280375,09008464-7,-83.081255,42.443082,130
-83.08002,42.441284,VPO2023-00387,19983,,CONANT,2023/03/15 04:00:00+00,286462,09008491-4,-83.08002,42.441284,131
-83.149756,42.415723,VPO2023-00389,16748,,WOODINGHAM,2023/04/05 04:00:00+00,104402,16028396.,-83.149756,42.415723,132
-83.125611,42.334367,VPO2023-00391,6450,,PELOUZE,2023/03/16 04:00:00+00,215013,18002621.,-83.125611,42.334367,133
-83.107707,42.333466,VPO2023-00392,3849,,29TH,2023/03/16 04:00:00+00,148944,16010629.,-83.107707,42.333466,134
-83.228785,42.384307,VPO2023-00393,19120,,DAVISON,2023/03/16 04:00:00+00,114712,22008622-4,-83.228785,42.384307,135
-83.112401,42.430284,VPO2023-00394,677,,HOLLYWOOD,2023/04/05 04:00:00+00,60904,01006690.,-83.112401,42.430284,136
-83.038868,42.425711,VPO2023-00396,17855,,MT ELLIOTT,2023/04/13 04:00:00+00,272894,13009416.,-83.038868,42.425711,137
-83.093143,42.4323,VPO2023-00397,1022,,SEVEN MILE,2023/04/13 04:00:00+00,443307,09007552.,-83.093143,42.4323,138
-83.002133,42.368738,VPO2023-00398,8405,,MACK,2023/03/16 04:00:00+00,540407,17000373.,-83.002133,42.368738,139
-83.165738,42.366261,VPO2023-00400,10600,,CHICAGO,2023/03/17 04:00:00+00,385618,18005609.,-83.165738,42.366261,140
-83.131853,42.302228,VPO2023-00401,9109,,LONGWORTH,2023/04/13 04:00:00+00,47880,20002935.,-83.131853,42.302228,141
-83.210041,42.430482,VPO2023-00403,16412,W,7 MILE,2023/03/17 04:00:00+00,535643,22017163-5,-83.210041,42.430482,142
-83.112213,42.336232,VPO2023-00404,4800,,31ST,2023/08/14 04:00:00+00,424897,16011191.,-83.112213,42.336232,143
-83.139952,42.361926,VPO2023-00405,9071,,STOEPEL,2023/03/17 04:00:00+00,540589,16019848-51,-83.139952,42.361926,144
-83.257257,42.441496,VPO2023-00406,20314,,GREYDALE,2023/04/12 04:00:00+00,96166,22112800.,-83.257257,42.441496,145
-83.175473,42.411613,VPO2023-00407,16251,,CHEYENNE,2023/04/03 04:00:00+00,88223,22026051.,-83.175473,42.411613,146
-83.223947,42.443389,VPO2023-00408,20559,,GLASTONBURY,2023/04/03 04:00:00+00,97017,22082273.,-83.223947,42.443389,147
-83.176555,42.411112,VPO2023-00409,16215,,LITTLEFIELD,2023/04/03 04:00:00+00,88133,22027233.,-83.176555,42.411112,148
-83.278643,42.432624,VPO2023-00410,19362,,WOODBINE,2023/03/20 04:00:00+00,127799,22122888.003L,-83.278643,42.432624,149
-83.202753,42.376672,VPO2023-00411,12141,,RUTHERFORD,2023/04/03 04:00:00+00,207665,22056630-1,-83.202753,42.376672,150
-83.125684,42.38883,VPO2023-00412,3029,,BUENA VISTA,2023/04/15 04:00:00+00,409846,12004252.,-83.125684,42.38883,151
-83.009282,42.365972,VPO2023-00414,7627,,MACK,2023/03/20 04:00:00+00,333633,17000343.001,-83.009282,42.365972,152
-83.165118,42.363017,VPO2023-00415,9232,,PINEHURST,2023/03/20 04:00:00+00,197698,18017488.,-83.165118,42.363017,153
-83.187814,42.395484,VPO2023-00416,14557,,STRATHMOOR,2023/03/20 04:00:00+00,133416,22038417.,-83.187814,42.395484,154
-83.145243,42.352629,VPO2023-00419,8041,,BRYDEN,2023/03/21 04:00:00+00,191625,16024818.,-83.145243,42.352629,155
-83.157982,42.419474,VPO2023-00425,17344,,INDIANA,2023/04/15 04:00:00+00,20625,16035670.,-83.157982,42.419474,156
-83.141997,42.414134,VPO2023-00426,16627,,STOEPEL,2023/04/15 04:00:00+00,104374,16019494.,-83.141997,42.414134,157
-82.955981,42.417896,VPO2023-00427,11001,,WHITTIER,2023/06/28 04:00:00+00,536831,21072512-9,-82.955981,42.417896,158
-83.160584,42.445402,VPO2023-00428,8901,W,8 MILE,2023/04/15 04:00:00+00,398783,16009430.,-83.160584,42.445402,159
,,VPO2023-00429,166,,JUNCTION,2023/04/15 04:00:00+00,,,,,160
-83.253051,42.400583,VPO2023-00430,21452,,FENKELL,2023/03/21 04:00:00+00,508076,22011275.,-83.253051,42.400583,161
-82.987638,42.3756,VPO2023-00431,3730,,GARLAND,2023/04/15 04:00:00+00,544290,21037805.,-82.987638,42.3756,162
-83.225723,42.403976,VPO2023-00432,18722,,GRAND RIVER,2023/04/03 04:00:00+00,352620,22008093-6,-83.225723,42.403976,163
-83.201862,42.433475,VPO2023-00434,19358,,MONTROSE,2023/03/27 04:00:00+00,60315,22053124.,-83.201862,42.433475,164
-83.003611,42.376054,VPO2023-00435,4508,,FISCHER,2023/04/15 04:00:00+00,7935,19010562.,-83.003611,42.376054,165
-83.00033,42.370786,VPO2023-00438,3795,,FISCHER,2023/04/15 04:00:00+00,347430,17005978-9,-83.00033,42.370786,166
-82.999387,42.37121,VPO2023-00439,3795,,CRANE,2023/04/15 04:00:00+00,1374,19010234-5,-82.999387,42.37121,167
-82.999974,42.372038,VPO2023-00440,3861,,CRANE,2023/04/15 04:00:00+00,3099,19010223-4,-82.999974,42.372038,168
-82.981946,42.419185,VPO2023-00441,13084,,FILBERT,2023/04/15 04:00:00+00,238154,21012663.,-82.981946,42.419185,169
-82.962947,42.387811,VPO2023-00442,4307,,LENOX,2023/04/15 04:00:00+00,303471,21050003.,-82.962947,42.387811,170
-82.963409,42.388546,VPO2023-00443,4363,,LENOX,2023/04/15 04:00:00+00,304825,21049993.,-82.963409,42.388546,171
-83.137151,42.406798,VPO2023-00444,15726,,HOLMUR,2023/04/15 04:00:00+00,7603,12012435.,-83.137151,42.406798,172
-83.025415,42.357469,VPO2023-00445,3333,,HEIDELBERG,2023/03/22 04:00:00+00,316611,13001354.,-83.025415,42.357469,173
-83.130327,42.365615,VPO2023-00446,9204,W,GRAND RIVER,2023/03/22 04:00:00+00,524667,14001580-1,-83.130327,42.365615,174
-83.03185,42.356865,VPO2023-00447,2821,,HALE,2023/03/22 04:00:00+00,262215,11001456.,-83.03185,42.356865,175
-83.233162,42.364525,VPO2023-00448,19537,,CHICAGO,2023/04/15 04:00:00+00,175504,22003884-5,-83.233162,42.364525,176
-82.951463,42.437259,VPO2023-00449,19257,,KELLY,2023/03/28 04:00:00+00,538765,21057192-3,-82.951463,42.437259,177
-83.208986,42.423621,VPO2023-00450,18238,,ASBURY PARK,2023/03/28 04:00:00+00,61865,22061541.,-83.208986,42.423621,178
-83.128453,42.364841,VPO2023-00452,8952,W,GRAND RIVER,2023/03/23 04:00:00+00,513735,14001590.,-83.128453,42.364841,179
-82.927338,42.406721,VPO2023-00454,17228,,WARREN,2023/03/23 04:00:00+00,535696,21002232.,-82.927338,42.406721,180
-83.188941,42.358536,VPO2023-00455,14726,,JOY,2023/03/28 04:00:00+00,537818,22003119.,-83.188941,42.358536,181
-83.070158,42.373791,VPO2023-00457,324,,BETHUNE,2023/03/28 04:00:00+00,340741,01002089-90,-83.070158,42.373791,182
-83.131968,42.360478,VPO2023-00458,5504,S,MARTINDALE,2023/03/23 04:00:00+00,201814,16003776-7,-83.131968,42.360478,183
-82.988352,42.441896,VPO2023-00459,13330,,STATE FAIR,2023/04/15 04:00:00+00,216098,21024154.,-82.988352,42.441896,184
-82.994238,42.426602,VPO2023-00460,17390,,WALTHAM,2023/04/15 04:00:00+00,227808,21032580.,-82.994238,42.426602,185
-82.98079,42.436832,VPO2023-00461,19245,,HOYT,2023/04/15 04:00:00+00,221000,21029321.,-82.98079,42.436832,186
-83.161454,42.361049,VPO2023-00462,8986,,GRIGGS,2023/04/15 04:00:00+00,205126,18016756.,-83.161454,42.361049,187
-83.147978,42.436537,VPO2023-00463,19488,,PENNINGTON,2023/03/24 04:00:00+00,21255,16026386.,-83.147978,42.436537,188
-83.209853,42.431427,VPO2023-00465,19175,,ASBURY PARK,2023/03/24 04:00:00+00,53683,22061768.,-83.209853,42.431427,189
-83.208605,42.371688,VPO2023-00466,11415,,WOODMONT,2023/04/10 04:00:00+00,211868,22062972.,-83.208605,42.371688,190
-82.927758,42.415166,VPO2023-00469,5906,,HEREFORD,2023/03/24 04:00:00+00,308154,21077126.,-82.927758,42.415166,191
-83.027552,42.393809,VPO2023-00470,8903,,ST CYRIL,2023/03/27 04:00:00+00,540562,15006950.,-83.027552,42.393809,192
-83.285321,42.424665,VPO2023-00471,18494,,SALEM,2023/04/15 04:00:00+00,108502,22124348.,-83.285321,42.424665,193
-83.161428,42.359898,VPO2023-00472,8900,,GRIGGS,2023/05/12 04:00:00+00,201877,18016744.,-83.161428,42.359898,194
-82.975931,42.424002,VPO2023-00475,14255,,YOUNG,2023/04/15 04:00:00+00,73825,21015904.,-82.975931,42.424002,195
-83.120414,42.391189,VPO2023-00477,13106,,LINWOOD,2023/04/15 04:00:00+00,537303,10007485-9,-83.120414,42.391189,196
-83.176273,42.367832,VPO2023-00479,9636,,HARTWELL,2023/04/15 04:00:00+00,206081,22028470.,-83.176273,42.367832,197
-83.135746,42.408709,VPO2023-00480,15863,,BELDEN,2023/04/19 04:00:00+00,7187,12012322.,-83.135746,42.408709,198
-82.950203,42.409546,VPO2023-00482,15857,,Evanston St,2023/04/13 04:00:00+00,298717,21005343.,-82.950203,42.409546,199
-82.975844,42.437125,VPO2023-00486,14446,,GRATIOT,2023/03/28 04:00:00+00,493849,21028549-50,-82.975844,42.437125,200
-83.191931,42.408348,VPO2023-00487,15881,,LAUDER,2023/04/15 04:00:00+00,141056,22042355.,-83.191931,42.408348,201
-83.189184,42.387173,VPO2023-00488,13422,,MARLOWE,2023/04/15 04:00:00+00,137264,22040652.,-83.189184,42.387173,202
-83.165576,42.44484,VPO2023-00489,20514,,BIRWOOD,2023/03/29 04:00:00+00,19096,16042272.,-83.165576,42.44484,203
-83.165577,42.444621,VPO2023-00490,20500,,BIRWOOD,2023/03/29 04:00:00+00,18560,16042270.,-83.165577,42.444621,204
-83.121676,42.397399,VPO2023-00491,13923,,LA SALLE,2023/03/29 04:00:00+00,41712,10008782.,-83.121676,42.397399,205
-83.052205,42.361025,VPO2023-00492,4841,,RIVARD,2023/03/29 04:00:00+00,364019,05001991.,-83.052205,42.361025,206
-83.022866,42.391086,VPO2023-00493,8537,,VAN DYKE,2023/04/16 04:00:00+00,540449,15005632.,-83.022866,42.391086,207
-83.129156,42.39305,VPO2023-00494,3209,,PASADENA,2023/04/15 04:00:00+00,32490,12004716.,-83.129156,42.39305,208
-83.098677,42.376925,VPO2023-00495,1710,,CLAIRMOUNT,2023/03/30 04:00:00+00,38978,08002732.,-83.098677,42.376925,209
-83.231946,42.392923,VPO2023-00497,14420,,WESTWOOD,2023/03/31 04:00:00+00,148015,22089493.,-83.231946,42.392923,210
-83.247651,42.406874,VPO2023-00499,15867,,BURT,2023/03/30 04:00:00+00,546980,22107901.,-83.247651,42.406874,211
-83.002508,42.367698,VPO2023-00503,8290,,MACK AVE,2023/03/31 04:00:00+00,405470,17000281.003L,-83.002508,42.367698,212
-82.94224,42.388483,VPO2023-00505,15425,,MACK,2023/04/15 04:00:00+00,538009,21001419.,-82.94224,42.388483,213
-83.02216,42.370698,VPO2023-00507,4844,,BELLEVUE,2023/04/15 04:00:00+00,406279,15013205.,-83.02216,42.370698,214
-83.091831,42.432413,VPO2023-00509,1136,,SEVEN  MILE,2023/04/15 04:00:00+00,277987,09007539.,-83.091831,42.432413,215
-83.209493,42.435108,VPO2023-00510,19480,,ASBURY PARK,2023/04/15 04:00:00+00,64668,22061632.,-83.209493,42.435108,216
-82.982534,42.382367,VPO2023-00511,4105,,BENITEAU,2023/04/03 04:00:00+00,301304,21043394.,-82.982534,42.382367,217
-82.979631,42.434803,VPO2023-00512,14126,E,SEVEN MILE,2023/04/03 04:00:00+00,527350,21020751.,-82.979631,42.434803,218
-82.940449,42.41147,VPO2023-00513,5965,,KENSINGTON,2023/04/15 04:00:00+00,306504,21072942.,-82.940449,42.41147,219
-82.961989,42.405632,VPO2023-00514,14639,,HARPER,2023/04/03 04:00:00+00,537792,21004387-95,-82.961989,42.405632,220
-83.092406,42.321333,VPO2023-00515,4035,W,VERNOR,2023/04/03 04:00:00+00,536187,14000325-6,-83.092406,42.321333,221
-83.15294,42.376648,VPO2023-00517,12049,,NORTHLAWN,2023/04/26 04:00:00+00,208795,16032547.,-83.15294,42.376648,222
-83.020375,42.370734,VPO2023-00520,6859,,GRATIOT,2023/04/15 04:00:00+00,542479,15000382.,-83.020375,42.370734,223
-83.257736,42.348559,VPO2023-00522,7740,,DACOSTA,2023/04/15 04:00:00+00,167959,22115491.,-83.257736,42.348559,224
-83.082543,42.353929,VPO2023-00525,5225,,AVERY,2023/04/05 04:00:00+00,46747,08007162.,-83.082543,42.353929,225
-83.131557,42.341386,VPO2023-00526,6518,,WAGNER,2023/04/05 04:00:00+00,172625,18003270.,-83.131557,42.341386,226
-83.113773,42.310446,VPO2023-00528,6745,,BOSTWICK,2023/05/12 04:00:00+00,32405,18000826.,-83.113773,42.310446,227
-83.034055,42.350883,VPO2023-00530,2155,,ALFRED,2023/04/15 04:00:00+00,539159,09001396-7,-83.034055,42.350883,228
-83.022211,42.445085,VPO2023-00532,20194,,TERRELL,2023/04/15 04:00:00+00,266417,17016594.,-83.022211,42.445085,229
-83.244644,42.37073,VPO2023-00533,11384,,PIERSON,2023/04/15 04:00:00+00,170602,22106314.,-83.244644,42.37073,230
-82.984007,42.437195,VPO2023-00534,13701,,LAPPIN,2023/04/10 04:00:00+00,222816,21021773.,-82.984007,42.437195,231
-83.206982,42.340691,VPO2023-00535,6750,,WOODMONT,2023/04/27 04:00:00+00,198667,22062414.,-83.206982,42.340691,232
-82.950947,42.417081,VPO2023-00536,10550,,BEACONSFIELD,2023/04/17 04:00:00+00,318122,21065824.,-82.950947,42.417081,233
-83.000664,42.371948,VPO2023-00537,3872,,FISCHER,2023/11/20 05:00:00+00,2931,19010510.,-83.000664,42.371948,234
-82.929494,42.406538,VPO2023-00538,17131,,WARREN,2023/04/16 04:00:00+00,352227,21002948-50,-82.929494,42.406538,235
-83.121893,42.35954,VPO2023-00539,4884,,IVANHOE,2023/04/16 04:00:00+00,201966,14002347.,-83.121893,42.35954,236
-83.170349,42.404623,VPO2023-00540,15436,,APPOLINE,2023/04/21 04:00:00+00,93129,22021080.,-83.170349,42.404623,237
-83.153251,42.387401,VPO2023-00552,13579,,NORTHLAWN,2023/04/16 04:00:00+00,182975,16032451.,-83.153251,42.387401,238
-83.236902,42.344695,VPO2023-00554,7305,,VAUGHAN,2023/04/16 04:00:00+00,161317,22098635.,-83.236902,42.344695,239
-83.181559,42.423071,VPO2023-00555,18075,,TRACEY,2023/04/16 04:00:00+00,67566,22031754.,-83.181559,42.423071,240
-82.953309,42.416466,VPO2023-00556,10586,,ROXBURY,2023/04/16 04:00:00+00,314151,21058818.,-82.953309,42.416466,241
-83.154316,42.412514,VPO2023-00557,16516,,CHERRYLAWN,2023/04/16 04:00:00+00,88957,16032865.,-83.154316,42.412514,242
-83.17155,42.408627,VPO2023-00558,15860,,STEEL,2023/04/16 04:00:00+00,87895,22022381.,-83.17155,42.408627,243
-83.222302,42.427175,VPO2023-00559,18304,,MARGARETA,2023/04/16 04:00:00+00,117711,22076854.,-83.222302,42.427175,244
-83.17059,42.400154,VPO2023-00560,15003,,APPOLINE,2023/04/16 04:00:00+00,86824,22021698.,-83.17059,42.400154,245
-82.939365,42.422087,VPO2023-00561,10544,,MORANG,2023/04/16 04:00:00+00,314316,21076432-3,-82.939365,42.422087,246
-83.179782,42.399233,VPO2023-00562,14938,,TRACEY,2023/04/16 04:00:00+00,92276,22031286.,-83.179782,42.399233,247
-83.170647,42.401529,VPO2023-00563,15103,,APPOLINE,2023/04/16 04:00:00+00,86812,22021684.,-83.170647,42.401529,248
-83.249686,42.432311,VPO2023-00564,19354,,TRINITY,2023/04/16 04:00:00+00,98867,22108646.021,-83.249686,42.432311,249
-83.248318,42.430074,VPO2023-00565,19142,,BURT,2023/04/16 04:00:00+00,113224,22107765.,-83.248318,42.430074,250
-83.210363,42.367197,VPO2023-00566,9636,,ABINGTON,2023/04/16 04:00:00+00,203585,22066121.,-83.210363,42.367197,251
-83.150101,42.425949,VPO2023-00567,18312,,WOODINGHAM,2023/04/24 04:00:00+00,14331,16028477.002L,-83.150101,42.425949,252
-83.241555,42.428729,VPO2023-00569,19016,,KENTFIELD,2023/05/25 04:00:00+00,103570,22100399.,-83.241555,42.428729,253
-83.17162,42.431505,VPO2023-00570,12730,,7 MILE,2023/04/16 04:00:00+00,535268,22017469-71,-83.17162,42.431505,254
-83.144004,42.371078,VPO2023-00571,10242,,GRAND RIVER,2023/04/16 04:00:00+00,476967,16005155.,-83.144004,42.371078,255
-83.03918,42.372066,VPO2023-00572,5531,,MCDOUGALL,2023/04/16 04:00:00+00,261674,11001989.,-83.03918,42.372066,256
-83.182996,42.440958,VPO2023-00573,20110,,LESURE,2023/04/16 04:00:00+00,12991,22032901-2,-83.182996,42.440958,257
-83.146617,42.434764,VPO2023-00575,3161,W,OUTER,2023/04/14 04:00:00+00,24984,16008868.,-83.146617,42.434764,258
-83.213182,42.42,VPO2023-00576,17536,,LINDSAY,2023/04/16 04:00:00+00,79717,22066847.,-83.213182,42.42,259
-83.05613,42.420402,VPO2023-00577,17209,,HASSE,2023/04/16 04:00:00+00,272431,13018219.,-83.05613,42.420402,260
-82.9872,42.368037,VPO2023-00580,2595,,CADILLAC,2023/04/17 04:00:00+00,335067,19005434.,-82.9872,42.368037,261
-83.131492,42.345696,VPO2023-00581,6185,,LIVERNOIS,2023/04/17 04:00:00+00,541055,18006946.,-83.131492,42.345696,262
-83.066071,42.350862,VPO2023-00582,511,,CANFIELD,2023/04/17 04:00:00+00,348008,02002370-2,-83.066071,42.350862,263
-83.20447,42.371572,VPO2023-00583,11400,,ST MARYS,2023/04/17 04:00:00+00,211832,22058418.,-83.20447,42.371572,264
-83.067113,42.411158,VPO2023-00584,13100,,JOSEPH CAMPAU,2023/04/17 04:00:00+00,429708,09011269.,-83.067113,42.411158,265
-83.067169,42.411241,VPO2023-00585,13108,,JOSEPH CAMPAU,2023/04/17 04:00:00+00,493193,09011270.,-83.067169,42.411241,266
-83.067235,42.411339,VPO2023-00586,13114,,JOSEPH CAMPAU,2023/04/17 04:00:00+00,426152,09011271-3,-83.067235,42.411339,267
-83.0673,42.411438,VPO2023-00587,13120,,JOSEPH CAMPAU,2023/04/17 04:00:00+00,445000,09011274.,-83.0673,42.411438,268
-83.067333,42.411487,VPO2023-00588,13126,,JOSEPH CAMPAU,2023/04/17 04:00:00+00,516299,09011275.,-83.067333,42.411487,269
-83.067389,42.411571,VPO2023-00589,13196,,JOSEPH CAMPAU,2023/04/17 04:00:00+00,461673,09011276-7,-83.067389,42.411571,270
-83.135566,42.390656,VPO2023-00590,4049,,PASADENA,2023/06/15 04:00:00+00,70845,14005748.,-83.135566,42.390656,271
-83.028752,42.358139,VPO2023-00591,3151,,GRATIOT,2023/04/17 04:00:00+00,262267,13001825-8,-83.028752,42.358139,272
-82.988534,42.397861,VPO2023-00592,11563,,HARPER,2023/04/19 04:00:00+00,370203,21004136.,-82.988534,42.397861,273
-83.120319,42.405865,VPO2023-00593,15521,,14TH,2023/04/19 04:00:00+00,8801,08009337.,-83.120319,42.405865,274
-82.958085,42.368256,VPO2023-00594,961,,CONNER,2023/04/19 04:00:00+00,339730,21046443.,-82.958085,42.368256,275
-83.188905,42.409924,VPO2023-00595,16150,,HUBBELL,2023/04/19 04:00:00+00,538169,22039113-25,-83.188905,42.409924,276
-83.202507,42.435506,VPO2023-00596,19505,,MONTROSE,2023/04/19 04:00:00+00,60228,22053144-5,-83.202507,42.435506,277
-82.953862,42.39355,VPO2023-00597,4620,,Manistique,2023/04/18 04:00:00+00,306975,21061220.,-82.953862,42.39355,278
-83.209734,42.430003,VPO2023-00598,16401,W,Seven Mile,2023/04/18 04:00:00+00,64630,22016264.,-83.209734,42.430003,279
-83.136498,42.387039,VPO2023-00599,4284,,WAVERLY,2023/04/19 04:00:00+00,79573,14005411.,-83.136498,42.387039,280
-83.138634,42.40718,VPO2023-00601,15757,,QUINCY,2023/04/19 04:00:00+00,7510,12012754.,-83.138634,42.40718,281
-83.056145,42.420485,VPO2023-00602,17215,,Hasse,2023/04/19 04:00:00+00,270940,13018218.,-83.056145,42.420485,282
-83.018128,42.339043,VPO2023-00603,2950,,WOODBRIDGE,2023/06/05 04:00:00+00,536106,11000077.,-83.018128,42.339043,283
-83.155076,42.428912,VPO2023-00604,18672,,CHERRYLAWN,2023/05/30 04:00:00+00,7965,16032969.,-83.155076,42.428912,284
-83.141991,42.413801,VPO2023-00609,16603,,STOEPEL,2023/04/28 04:00:00+00,104377,16019498.,-83.141991,42.413801,285
-83.223714,42.369613,VPO2023-00611,18726,,FITZPATRICK,2023/04/21 04:00:00+00,215560,22068083.,-83.223714,42.369613,286
-83.223842,42.369681,VPO2023-00612,18736,,FITZPATRICK,2023/04/21 04:00:00+00,215561,22068084.,-83.223842,42.369681,287
-82.949987,42.42186,VPO2023-00615,11284,,LAKEPOINTE,2023/04/29 04:00:00+00,317349,21064836.,-82.949987,42.42186,288
-83.003034,42.372831,VPO2023-00616,4169,,BURNS,2023/04/29 04:00:00+00,4868,17006569.,-83.003034,42.372831,289
-83.202899,42.427299,VPO2023-00617,18637,,FORRER,2023/04/29 04:00:00+00,62319,22054292.,-83.202899,42.427299,290
-83.165326,42.439174,VPO2023-00618,19940,,BIRWOOD,2023/04/29 04:00:00+00,25298,16042224.,-83.165326,42.439174,291
-83.15786,42.389759,VPO2023-00619,13982,,Kentucky,2023/04/24 04:00:00+00,185049,16036411.,-83.15786,42.389759,292
-83.219687,42.353617,VPO2023-00620,8284,,PENROD,2023/05/04 04:00:00+00,159094,22077599.,-83.219687,42.353617,293
-83.16014,42.406839,VPO2023-00621,15747,,WYOMING,2023/04/24 04:00:00+00,538082,16038412-3,-83.16014,42.406839,294
-83.130642,42.403881,VPO2023-00622,15355,,ALDEN,2023/04/29 04:00:00+00,12040,12011300.,-83.130642,42.403881,295
-83.133885,42.300428,VPO2023-00623,1328,,WOODMERE,2023/08/06 04:00:00+00,46951,20008398.,-83.133885,42.300428,296
-83.152292,42.421725,VPO2023-00626,17568,,ROSELAWN,2023/04/29 04:00:00+00,541445,16030394.,-83.152292,42.421725,297
-82.951681,42.397789,VPO2023-00628,15126,E,WARREN,2023/04/25 04:00:00+00,535481,21002410.,-82.951681,42.397789,298
-83.142734,42.429002,VPO2023-00629,18667,,STOEPEL,2023/05/19 04:00:00+00,6407,16019384.,-83.142734,42.429002,299
-83.141985,42.43238,VPO2023-00632,19147,,LIVERNOIS,2023/04/30 04:00:00+00,352744,16017567.,-83.141985,42.43238,300
-83.125534,42.383366,VPO2023-00634,3348,,RICHTON,2023/04/26 04:00:00+00,51893,12003765.,-83.125534,42.383366,301
-82.977274,42.410295,VPO2023-00635,13036,,WILSHIRE,2023/04/26 04:00:00+00,247045,21008382.,-82.977274,42.410295,302
-83.137361,42.444977,VPO2023-00641,20480,,PICADILLY,2023/04/30 04:00:00+00,285712,02005835.,-83.137361,42.444977,303
-83.189218,42.403007,VPO2023-00642,15361,,HUBBELL,2023/04/30 04:00:00+00,139776,22039990.,-83.189218,42.403007,304
-83.181289,42.442539,VPO2023-00643,20219,,SCHAEFER,2023/04/28 04:00:00+00,15440,22030361.,-83.181289,42.442539,305
-83.155587,42.398416,VPO2023-00644,14825,,OHIO,2023/05/26 04:00:00+00,84906,16034336.,-83.155587,42.398416,306
-82.99959,42.437081,VPO2023-00645,19344,,DRESDEN,2023/04/30 04:00:00+00,228096,21034724.,-82.99959,42.437081,307
-83.016403,42.336234,VPO2023-00647,1000,,RIVER PLACE,2023/11/19 05:00:00+00,,,-83.016403,42.336234,308
-83.152912,42.421724,VPO2023-00648,17567,,ROSELAWN,2023/04/30 04:00:00+00,11743,16030723.,-83.152912,42.421724,309
-83.11021,42.329095,VPO2023-00649,3407,,Junction,2023/04/27 04:00:00+00,151326,16013237.,-83.11021,42.329095,310
-83.221318,42.429364,VPO2023-00650,19020,,ROSEMONT,2023/04/30 04:00:00+00,100882,22076629.,-83.221318,42.429364,311
-82.952124,42.436361,VPO2023-00651,19195,,KELLY,2023/04/30 04:00:00+00,149969,21057207-8,-82.952124,42.436361,312
-83.080851,42.433248,VPO2023-00652,2039,,SEVEN MILE,2023/04/30 04:00:00+00,535900,09007753-8,-83.080851,42.433248,313
-83.048818,42.444475,VPO2023-00653,20201,,Buffalo,2023/04/28 04:00:00+00,289621,13014864.,-83.048818,42.444475,314
-83.156286,42.429944,VPO2023-00654,18920,,OHIO,2023/05/19 04:00:00+00,220316,16033952.,-83.156286,42.429944,315
-83.204382,42.39534,VPO2023-00656,16022,WEST,GRAND RIVER,2023/04/30 04:00:00+00,535590,22008240.,-83.204382,42.39534,316
-83.144043,42.411124,VPO2023-00657,16185,,MONICA,2023/04/30 04:00:00+00,104296,16021771.,-83.144043,42.411124,317
-83.037515,42.424546,VPO2023-00658,17685,,FILER,2023/09/11 04:00:00+00,538435,15012986.,-83.037515,42.424546,318
-83.092095,42.388098,VPO2023-00659,741,,COLLINGWOOD,2023/05/08 04:00:00+00,344751,04002892.,-83.092095,42.388098,319
-83.082201,42.423984,VPO2023-00660,17844,,DEQUINDRE,2023/04/30 04:00:00+00,281906,09016296-9,-83.082201,42.423984,320
-83.103571,42.381756,VPO2023-00661,1915,,GLYNN,2023/05/15 04:00:00+00,51130,08003142.,-83.103571,42.381756,321
-83.091042,42.391484,VPO2023-00662,159,,WEBB,2023/04/30 04:00:00+00,338599,02001660.,-83.091042,42.391484,322
-83.230386,42.333732,VPO2023-00664,6095,,WESTWOOD,2023/04/30 04:00:00+00,154703,22090364.,-83.230386,42.333732,323
-83.078272,42.427624,VPO2023-00665,18129,,GODDARD,2023/04/30 04:00:00+00,290089,09014252.,-83.078272,42.427624,324
-82.915316,42.407607,VPO2023-00666,18155,,MACK,2023/04/30 04:00:00+00,464116,21001598-0,-82.915316,42.407607,325
-83.087886,42.380407,VPO2023-00667,801,,CLAIRMOUNT,2023/04/30 04:00:00+00,344082,04002449.001,-83.087886,42.380407,326
-83.017802,42.374783,VPO2023-00668,7329,,GRATIOT,2023/04/30 04:00:00+00,540191,17000665.,-83.017802,42.374783,327
-83.017917,42.374595,VPO2023-00669,7313,,GRATIOT,2023/04/30 04:00:00+00,493858,17000663.,-83.017917,42.374595,328
-83.091133,42.334578,VPO2023-00670,3322,,TILLMAN,2023/04/30 04:00:00+00,150125,12007260.,-83.091133,42.334578,329
-83.138644,42.402935,VPO2023-00671,4016,,FENKELL,2023/05/17 04:00:00+00,349176,12005324-8,-83.138644,42.402935,330
-83.099628,42.373585,VPO2023-00672,1990,,GLADSTONE,2023/05/01 04:00:00+00,59647,08002455.,-83.099628,42.373585,331
-83.204578,42.342958,VPO2023-00673,6914,,METTETAL,2023/05/17 04:00:00+00,173436,22059576.,-83.204578,42.342958,332
-83.145385,42.431727,VPO2023-00674,7330,,SEVEN MILE,2023/05/17 04:00:00+00,536501,16008825.,-83.145385,42.431727,333
-83.189238,42.402789,VPO2023-00675,15353,,HUBBELL,2023/05/12 04:00:00+00,139777,22039993-4,-83.189238,42.402789,334
-83.170555,42.399877,VPO2023-00676,14955,,APPOLINE,2023/05/22 04:00:00+00,86853,22021699.,-83.170555,42.399877,335
-83.254098,42.397993,VPO2023-00677,11388,WEST,OUTER,2023/05/19 04:00:00+00,146712,22125827-8,-83.254098,42.397993,336
-83.245766,42.38964,VPO2023-00678,14179,,PIERSON,2023/05/19 04:00:00+00,143770,22107028.,-83.245766,42.38964,337
-83.244523,42.400769,VPO2023-00679,20650,,FENKELL,2023/10/12 04:00:00+00,110658,22105254-7,-83.244523,42.400769,338
-83.203111,42.384951,VPO2023-00681,13511,,RUTHERFORD,2023/05/17 04:00:00+00,135880,22056606.,-83.203111,42.384951,339
-83.120826,42.412529,VPO2023-00682,2011,,FLORENCE,2023/05/05 04:00:00+00,28210,08005436.,-83.120826,42.412529,340
-83.17524,42.406062,VPO2023-00683,15711,W,Cheyenne,2023/05/03 04:00:00+00,543133,22026099.,-83.17524,42.406062,341
-83.110403,42.369731,VPO2023-00684,2920,W,Gladstone,2023/05/03 04:00:00+00,539377,12002398.,-83.110403,42.369731,342
-83.157623,42.360808,VPO2023-00685,8910,,WYOMING,2023/05/03 04:00:00+00,540563,18015947-51,-83.157623,42.360808,343
-83.195933,42.403161,VPO2023-00688,15370,,WHITCOMB,2023/05/17 04:00:00+00,141463,22047501.,-83.195933,42.403161,344
-83.094577,42.386096,VPO2023-00689,943,,CALVERT,2023/05/17 04:00:00+00,345769,04002831.,-83.094577,42.386096,345
-83.105985,42.373214,VPO2023-00690,2440,,TAYLOR,2023/05/17 04:00:00+00,59514,10002342.,-83.105985,42.373214,346
-83.176504,42.410055,VPO2023-00691,16141,,LITTLEFIELD,2023/05/20 04:00:00+00,88157,22027244.,-83.176504,42.410055,347
-83.134647,42.405949,VPO2023-00692,15495,,FAIRFIELD,2023/05/20 04:00:00+00,7736,12012184.,-83.134647,42.405949,348
-83.193526,42.415351,VPO2023-00693,16875,,ROBSON,2023/05/31 04:00:00+00,143485,22044117.,-83.193526,42.415351,349
-83.201573,42.409998,VPO2023-00694,16220,,FORRER,2023/05/20 04:00:00+00,144695,22054018.,-83.201573,42.409998,350
-83.182585,42.413604,VPO2023-00695,16634,,STANSBURY,2023/05/20 04:00:00+00,89199,22033490.,-83.182585,42.413604,351
-83.285593,42.418055,VPO2023-00696,17395,,SALEM,2023/05/20 04:00:00+00,108344,22124477.,-83.285593,42.418055,352
-83.215248,42.42939,VPO2023-00697,18971,,OAKFIELD,2023/05/20 04:00:00+00,80368,22069583.,-83.215248,42.42939,353
-83.17134,42.44052,VPO2023-00699,20041,,MEYERS,2023/05/20 04:00:00+00,34661,22019893.,-83.17134,42.44052,354
-83.170312,42.442806,VPO2023-00700,20245,,MANOR,2023/05/20 04:00:00+00,13078,16045557.,-83.170312,42.442806,355
-83.16336,42.39589,VPO2023-00701,14544,,BIRWOOD,2023/05/20 04:00:00+00,85752,16041938.,-83.16336,42.39589,356
-83.232267,42.421939,VPO2023-00702,17685,,GRANDVILLE,2023/05/21 04:00:00+00,115896,22088646.,-83.232267,42.421939,357
-83.086193,42.344443,VPO2023-00703,4300,,16TH,2023/05/21 04:00:00+00,44406,10006077.,-83.086193,42.344443,358
-83.184169,42.440123,VPO2023-00704,20032,,STANSBURY,2023/05/21 04:00:00+00,22086,22033631.,-83.184169,42.440123,359
-83.205072,42.342953,VPO2023-00705,6915,,METTETAL,2023/05/21 04:00:00+00,173432,22060887-8,-83.205072,42.342953,360
-82.967961,42.395257,VPO2023-00707,5265,,LENOX,2023/05/21 04:00:00+00,309509,21049948.,-82.967961,42.395257,361
-83.150883,42.402863,VPO2023-00708,8100,,FENKELL,2023/05/05 04:00:00+00,540312,16007224-7,-83.150883,42.402863,362
-83.168401,42.358924,VPO2023-00710,12730,,JOY,2023/05/21 04:00:00+00,537162,22003264.,-83.168401,42.358924,363
-82.981053,42.439808,VPO2023-00711,13893,,LIBERAL,2023/05/06 04:00:00+00,221239,21022833.,-82.981053,42.439808,364
-83.050061,42.436195,VPO2023-00712,19308,,MOENART,2023/05/06 04:00:00+00,291886,13015746.,-83.050061,42.436195,365
-83.018029,42.393928,VPO2023-00713,8288,,BADGER,2023/05/06 04:00:00+00,289468,17001457.,-83.018029,42.393928,366
-82.949868,42.406229,VPO2023-00714,5777,,CHATSWORTH,2023/05/06 04:00:00+00,322384,21068994.,-82.949868,42.406229,367
-82.957929,42.40842,VPO2023-00715,9164,,LAKEPOINTE,2023/05/06 04:00:00+00,298517,21064715.,-82.957929,42.40842,368
-83.150671,42.376494,VPO2023-00716,12037,,ROSELAWN,2023/05/06 04:00:00+00,207849,16031018.,-83.150671,42.376494,369
-83.129235,42.371527,VPO2023-00717,9759,,BROADSTREET,2023/10/16 04:00:00+00,73078,14012276.,-83.129235,42.371527,370
-83.185918,42.393025,VPO2023-00718,14336,,MARK TWAIN,2023/05/06 04:00:00+00,128932,22036685.,-83.185918,42.393025,371
-82.980093,42.441335,VPO2023-00719,14008,,TACOMA,2023/05/06 04:00:00+00,216799,21023649.,-82.980093,42.441335,372
-83.195198,42.357945,VPO2023-00721,15315,,JOY,2023/05/07 04:00:00+00,537969,22002273.,-83.195198,42.357945,373
-83.203111,42.384951,VPO2023-00722,13511,,RUTHERFORD,2023/05/07 04:00:00+00,135880,22056606.,-83.203111,42.384951,374
-82.939003,42.415291,VPO2023-00724,16837,,HARPER,2023/05/07 04:00:00+00,303764,21004630.,-82.939003,42.415291,375
-83.08858,42.432499,VPO2023-00725,1510,EAST,7 MILE,2023/05/07 04:00:00+00,535477,09007517-8,-83.08858,42.432499,376
-83.206536,42.387682,VPO2023-00726,13952,,METTETAL,2023/05/21 04:00:00+00,148380,22059859.,-83.206536,42.387682,377
-83.196506,42.398936,VPO2023-00727,14953,,WHITCOMB,2023/05/21 04:00:00+00,137503,22048019.,-83.196506,42.398936,378
-83.22553,42.411404,VPO2023-00728,16599,,AVON,2023/05/21 04:00:00+00,119568,22081825.,-83.22553,42.411404,379
-83.164283,42.414846,VPO2023-00729,16824,,BIRWOOD,2023/05/21 04:00:00+00,94586,16042089.,-83.164283,42.414846,380
-83.228435,42.419529,VPO2023-00730,17527,,SUNDERLAND,2023/05/21 04:00:00+00,118427,22085032.,-83.228435,42.419529,381
-83.203264,42.388369,VPO2023-00731,13994,,RUTHERFORD,2023/05/21 04:00:00+00,152159,22055896.,-83.203264,42.388369,382
-82.970882,42.400567,VPO2023-00732,5980,,LENOX,2023/05/21 04:00:00+00,312476,21049873.,-82.970882,42.400567,383
-83.18408,42.411424,VPO2023-00733,16251,,CRUSE,2023/05/21 04:00:00+00,87324,22034306.,-83.18408,42.411424,384
-83.220714,42.372144,VPO2023-00734,18417,,PLYMOUTH,2023/05/21 04:00:00+00,,,-83.220714,42.372144,385
-83.089402,42.359749,VPO2023-00735,6056,,VERMONT,2023/05/08 04:00:00+00,71389,08008485.,-83.089402,42.359749,386
-83.146175,42.3463,VPO2023-00736,7307,,CENTRAL,2023/05/08 04:00:00+00,177663,18009966.,-83.146175,42.3463,387
-83.115834,42.43783,VPO2023-00737,1086,,FERNHILL,2023/05/21 04:00:00+00,51023,01007660.,-83.115834,42.43783,388
-83.183352,42.407666,VPO2023-00738,15810,,CRUSE,2023/05/21 04:00:00+00,87437,22034192.,-83.183352,42.407666,389
-83.07895,42.344774,VPO2023-00739,4122,,GRAND RIVER,2023/05/21 04:00:00+00,536196,08001174.,-83.07895,42.344774,390
-82.96552,42.427689,VPO2023-00740,17131,,HAYES,2023/05/21 04:00:00+00,538305,21056595.,-82.96552,42.427689,391
-83.17643,42.354923,VPO2023-00741,8285,,HARTWELL,2023/05/22 04:00:00+00,188559,22029488.,-83.17643,42.354923,392
-83.160048,42.427904,VPO2023-00742,18601,,KENTUCKY,2023/06/21 04:00:00+00,16755,16036871.,-83.160048,42.427904,393
-82.958522,42.3995,VPO2023-00744,5316,,PHILIP,2023/05/21 04:00:00+00,309821,21060294.,-82.958522,42.3995,394
-82.989027,42.389924,VPO2023-00745,5530,,FAIRVIEW,2023/05/21 04:00:00+00,293436,21042258.,-82.989027,42.389924,395
-83.125229,42.389002,VPO2023-00746,3003,,BUENA VISTA,2023/05/21 04:00:00+00,35490,12004250.,-83.125229,42.389002,396
-82.939106,42.394239,VPO2023-00747,4008,,BUCKINGHAM,2023/05/21 04:00:00+00,320327,21069656.,-82.939106,42.394239,397
-83.103949,42.427371,VPO2023-00748,91,,GRIXDALE,2023/05/21 04:00:00+00,64661,01006106.,-83.103949,42.427371,398
-82.990612,42.363996,VPO2023-00749,2244,,HOLCOMB,2023/05/16 04:00:00+00,333846,19008112.,-82.990612,42.363996,399
-83.016003,42.389771,VPO2023-00750,6486,,SENECA,2023/05/10 04:00:00+00,224500,17006809.,-83.016003,42.389771,400
-83.140074,42.35644,VPO2023-00753,6392,,LINSDALE,2023/05/21 04:00:00+00,193882,16003412.,-83.140074,42.35644,401
-83.093288,42.32098,VPO2023-00754,4113,W,VERNOR,2023/05/10 04:00:00+00,531981,14000334.,-83.093288,42.32098,402
-83.026083,42.369541,VPO2023-00755,6340,,HANCOCK,2023/05/21 04:00:00+00,342859,15000467-8,-83.026083,42.369541,403
-83.195274,42.357903,VPO2023-00756,15319,,JOY,2023/05/10 04:00:00+00,438975,22002274.,-83.195274,42.357903,404
-83.187093,42.439934,VPO2023-00758,20025,,FREELAND,2023/05/21 04:00:00+00,20214,22035971.,-83.187093,42.439934,405
-83.093486,42.336378,VPO2023-00760,3572,,23RD,2023/05/16 04:00:00+00,150517,12008093.,-83.093486,42.336378,406
-83.142612,42.426903,VPO2023-00761,18445,,STOEPEL,2023/05/23 04:00:00+00,8083,16019404.,-83.142612,42.426903,407
-82.9563,42.392106,VPO2023-00763,4428,,CHALMERS,2023/05/23 04:00:00+00,545336,21055381.,-82.9563,42.392106,408
-83.091431,42.426694,VPO2023-00765,18121,,CARDONI,2023/05/23 04:00:00+00,280172,09021393.,-83.091431,42.426694,409
-83.234111,42.426568,VPO2023-00766,18538,,EDINBOROUGH,2023/05/23 04:00:00+00,101278,22090988.,-83.234111,42.426568,410
-83.144693,42.4245,VPO2023-00767,18203,,MONICA,2023/05/23 04:00:00+00,9147,16021673.,-83.144693,42.4245,411
-83.243543,42.358632,VPO2023-00769,8877,,BRAILE,2023/05/15 04:00:00+00,165991,22105979.,-83.243543,42.358632,412
-83.034662,42.365168,VPO2023-00770,4671,,MCDOUGALL,2023/05/15 04:00:00+00,539770,11002063.,-83.034662,42.365168,413
-83.200504,42.388138,VPO2023-00771,13977,,MONTROSE,2023/05/31 04:00:00+00,151174,22053227.,-83.200504,42.388138,414
-83.236728,42.391722,VPO2023-00772,14342,,EVERGREEN,2023/05/31 04:00:00+00,143574,22095576.,-83.236728,42.391722,415
-83.220338,42.41611,VPO2023-00773,17135,,ASHTON,2023/05/31 04:00:00+00,100675,22075509.,-83.220338,42.41611,416
-83.145471,42.418211,VPO2023-00774,17169,,PRAIRIE,2023/05/31 04:00:00+00,13336,16023234.,-83.145471,42.418211,417
-82.940201,42.403228,VPO2023-00775,5052,,THREE MILE,2023/05/31 04:00:00+00,321515,21071165.,-82.940201,42.403228,418
-82.938159,42.368181,VPO2023-00776,510,,PHILIP,2023/06/01 04:00:00+00,339758,21059970.,-82.938159,42.368181,419
-83.092285,42.38941,VPO2023-00782,698,,LAWRENCE,2023/06/01 04:00:00+00,346511,04003002.,-83.092285,42.38941,420
-83.023119,42.355686,VPO2023-00783,3387,,CHARLEVOIX,2023/05/18 04:00:00+00,316476,13001054.,-83.023119,42.355686,421
-83.072229,42.343663,VPO2023-00784,3644,,LINCOLN,2023/10/02 04:00:00+00,44239,06005424.,-83.072229,42.343663,422
-82.926445,42.393594,VPO2023-00785,16719,,Mack,2023/05/17 04:00:00+00,352136,21001483.,-82.926445,42.393594,423
-83.008301,42.362318,VPO2023-00790,2986,,SHERIDAN,2023/05/30 04:00:00+00,331742,17012731.,-83.008301,42.362318,424
-82.947861,42.402083,VPO2023-00791,5226,,Balfour,2023/05/17 04:00:00+00,320834,21067710.,-82.947861,42.402083,425
-83.171158,42.436433,VPO2023-00792,19505,,MEYERS,2023/06/01 04:00:00+00,25876,22019938.,-83.171158,42.436433,426
-82.940853,42.405137,VPO2023-00793,5261,,COURVILLE,2023/06/01 04:00:00+00,321754,21071685.,-82.940853,42.405137,427
-83.207076,42.428705,VPO2023-00794,18910,,ST MARYS,2023/06/20 04:00:00+00,61981,22058747.,-83.207076,42.428705,428
-83.143213,42.4288,VPO2023-00795,18652,,SANTA ROSA,2023/05/24 04:00:00+00,6418,16020247.,-83.143213,42.4288,429
-83.145202,42.424887,VPO2023-00796,18230,,PRAIRIE,2023/07/11 04:00:00+00,9160,16022868.,-83.145202,42.424887,430
-83.057155,42.437166,VPO2023-00799,19393,,HASSE,2023/06/01 04:00:00+00,291725,13018138.,-83.057155,42.437166,431
-83.048903,42.447183,VPO2023-00800,20569,,BUFFALO,2023/06/01 04:00:00+00,289406,13014838.,-83.048903,42.447183,432
-83.25816,42.435367,VPO2023-00801,19750,,LAHSER,2023/06/01 04:00:00+00,97489,22113500-1,-83.25816,42.435367,433
-83.145948,42.406738,VPO2023-00802,15750,,SAN JUAN,2023/05/18 04:00:00+00,538085,16025478.,-83.145948,42.406738,434
-83.24204,42.372172,VPO2023-00804,20520,,PLYMOUTH,2023/05/18 04:00:00+00,172166,22005582.,-83.24204,42.372172,435
-83.174579,42.402994,VPO2023-00805,15352,,CHEYENNE,2023/06/20 04:00:00+00,93527,22025851.,-83.174579,42.402994,436
-83.243286,42.443424,VPO2023-00806,20301,W,EIGHT MILE,2023/05/19 04:00:00+00,535893,22019018-9,-83.243286,42.443424,437
-83.243553,42.443438,VPO2023-00808,20315,W,EIGHT MILE,2023/05/19 04:00:00+00,541988,22019020-1,-83.243553,42.443438,438
-83.167946,42.358916,VPO2023-00810,12700,,Joy,2023/05/22 04:00:00+00,216177,22003268-70,-83.167946,42.358916,439
-83.120359,42.361557,VPO2023-00813,8422,WEST,GRAND RIVER,2023/05/19 04:00:00+00,546130,14001620.,-83.120359,42.361557,440
-83.112441,42.347753,VPO2023-00814,5659,,SCOTTEN,2023/06/01 04:00:00+00,202852,14009883.,-83.112441,42.347753,441
-82.987439,42.364966,VPO2023-00815,9367,,NAVARRE,2023/06/01 04:00:00+00,333970,19000315.,-82.987439,42.364966,442
-83.147133,42.398178,VPO2023-00816,14803,,TULLER,2023/05/20 04:00:00+00,84829,16027096.,-83.147133,42.398178,443
-83.134567,42.289541,VPO2023-00817,169,,GATES,2023/06/01 04:00:00+00,3248,20005943.,-83.134567,42.289541,444
-83.099364,42.344684,VPO2023-00819,4837,,23RD,2023/06/01 04:00:00+00,152860,12008273.,-83.099364,42.344684,445
-83.019428,42.394264,VPO2023-00820,8215,,BADGER,2023/06/01 04:00:00+00,289883,17001508.,-83.019428,42.394264,446
-83.14183,42.421353,VPO2023-00821,17534,,STOEPEL,2023/06/01 04:00:00+00,11394,16019074.,-83.14183,42.421353,447
-83.261834,42.347415,VPO2023-00824,7667,,BRAMELL,2023/06/01 04:00:00+00,166405,22118039.,-83.261834,42.347415,448
-82.981305,42.430192,VPO2023-00825,13945,,Gratiot,2023/05/23 04:00:00+00,537559,21029050-1,-82.981305,42.430192,449
-83.030425,42.356144,VPO2023-00828,3460,,JOSEPH CAMPAU,2023/09/28 04:00:00+00,539495,11002333.,-83.030425,42.356144,450
-83.012649,42.361606,VPO2023-00829,3132,,HELEN,2023/10/30 04:00:00+00,331573,15008786.,-83.012649,42.361606,451
-83.096666,42.32343,VPO2023-00830,4239,,TOLEDO,2023/05/24 04:00:00+00,219503,14000433.,-83.096666,42.32343,452
-83.104587,42.41892,VPO2023-00834,159,,DAKOTA,2023/06/21 04:00:00+00,45224,01004672.,-83.104587,42.41892,453
-83.161219,42.40737,VPO2023-00835,15781,,WASHBURN,2023/06/01 04:00:00+00,543393,16039742.,-83.161219,42.40737,454
-83.126604,42.370263,VPO2023-00836,9617,,MARTINDALE,2023/06/13 04:00:00+00,71912,14007787.,-83.126604,42.370263,455
-83.017632,42.339257,VPO2023-00838,3000,,WOODBRIDGE,2023/06/01 04:00:00+00,536112,11000076.,-83.017632,42.339257,456
-83.136718,42.442774,VPO2023-00839,20187,,STRATFORD,2023/05/25 04:00:00+00,288672,02005229.,-83.136718,42.442774,457
-83.149543,42.410496,VPO2023-00840,16142,,WOODINGHAM,2023/06/01 04:00:00+00,101645,16028338.,-83.149543,42.410496,458
-83.037585,42.344517,VPO2023-00844,1480,,GRATIOT,2023/06/11 04:00:00+00,327780,07000774.,-83.037585,42.344517,459
-83.108396,42.391651,VPO2023-00846,1654,,HIGHLAND,2023/08/07 04:00:00+00,40275,06003474.,-83.108396,42.391651,460
-83.206376,42.372704,VPO2023-00847,16316,,PLYMOUTH,2023/05/30 04:00:00+00,538206,22005876.,-83.206376,42.372704,461
-83.132591,42.403407,VPO2023-00848,15335,,WILDEMERE,2023/06/30 04:00:00+00,11933,12005968.,-83.132591,42.403407,462
-83.086868,42.433993,VPO2023-00850,19183,,RIOPELLE,2023/05/31 04:00:00+00,281816,09018799.,-83.086868,42.433993,463
-83.038202,42.422178,VPO2023-00851,17424,,MT ELLIOTT,2023/07/11 04:00:00+00,262440,15014273.,-83.038202,42.422178,464
-83.151219,42.423602,VPO2023-00854,18074,,GREENLAWN,2023/07/06 04:00:00+00,14348,16029510.,-83.151219,42.423602,465
-82.997605,42.434469,VPO2023-00855,12444,,SEVEN MILE,2023/07/06 04:00:00+00,350953,21020872.,-82.997605,42.434469,466
-83.177507,42.395476,VPO2023-00856,14538,,HARTWELL,2023/07/06 04:00:00+00,84163,22028613.,-83.177507,42.395476,467
-82.935554,42.425883,VPO2023-00858,10909,,MARNE,2023/06/22 04:00:00+00,312846,21068494.,-82.935554,42.425883,468
-83.143077,42.425012,VPO2023-00859,18238,,SANTA ROSA,2023/07/07 04:00:00+00,9090,16020211.,-83.143077,42.425012,469
-83.239027,42.427306,VPO2023-00860,18905,,EVERGREEN,2023/06/02 04:00:00+00,103609,22096126.,-83.239027,42.427306,470
-82.98678,42.435051,VPO2023-00861,13437,,SEVEN MILE,2023/07/07 04:00:00+00,535350,21021079.002L,-82.98678,42.435051,471
-82.975378,42.35852,VPO2023-00862,470,,MARQUETTE,2023/07/07 04:00:00+00,334324,21038377.002,-82.975378,42.35852,472
-83.007366,42.382247,VPO2023-00863,5361,,CRANE,2023/07/07 04:00:00+00,25398,19010097.,-83.007366,42.382247,473
-83.208067,42.427023,VPO2023-00864,18618,,MURRAY HILL,2023/07/07 04:00:00+00,61905,22060148.,-83.208067,42.427023,474
-83.156791,42.40591,VPO2023-00865,15507,,WISCONSIN,2023/07/07 04:00:00+00,90288,16035201.,-83.156791,42.40591,475
-83.017648,42.375019,VPO2023-00866,7351,,GRATIOT,2023/06/23 04:00:00+00,542481,17000668.,-83.017648,42.375019,476
-83.024616,42.435339,VPO2023-00867,19237,,VAN DYKE,2023/06/06 04:00:00+00,538761,15005313-4,-83.024616,42.435339,477
-83.114601,42.432418,VPO2023-00869,19102,,WOODWARD,2023/07/07 04:00:00+00,56375,01009808.,-83.114601,42.432418,478
-83.232651,42.417187,VPO2023-00870,17238,,HUNTINGTON,2023/06/06 04:00:00+00,116646,22089573.,-83.232651,42.417187,479
-83.105176,42.422007,VPO2023-00871,168,,LONGWOOD,2023/06/06 04:00:00+00,48605,01004941.,-83.105176,42.422007,480
-83.197751,42.368059,VPO2023-00874,9911,,GREENFIELD,2023/06/06 04:00:00+00,350500,22051139.,-83.197751,42.368059,481
-83.143856,42.430235,VPO2023-00875,18929,,SANTA ROSA,2023/07/19 04:00:00+00,6319,16020493.,-83.143856,42.430235,482
-83.040024,42.436589,VPO2023-00880,19360,,ST LOUIS,2023/07/25 04:00:00+00,299669,13011345-6,-83.040024,42.436589,483
-83.091811,42.38322,VPO2023-00881,901,,CHICAGO BLVD,2023/07/25 04:00:00+00,344857,04002705.,-83.091811,42.38322,484
-83.257189,42.402788,VPO2023-00882,15445,,LAHSER,2023/06/07 04:00:00+00,130825,22113816.,-83.257189,42.402788,485
-83.236028,42.388996,VPO2023-00886,14117,,PLAINVIEW,2023/07/05 04:00:00+00,147787,22094522-5,-83.236028,42.388996,486
-83.18121,42.407627,VPO2023-00888,15802,,LESURE,2023/07/19 04:00:00+00,87391,22032687.,-83.18121,42.407627,487
-83.155433,42.410815,VPO2023-00889,16170,,OHIO,2023/06/14 04:00:00+00,100217,16033822.,-83.155433,42.410815,488
-83.215944,42.43348,VPO2023-00891,19370,,HARLOW,2023/07/19 04:00:00+00,77959,22069946.,-83.215944,42.43348,489
-83.063392,42.337975,VPO2023-00894,2613,W,GRAND RIVER,2023/07/05 04:00:00+00,536051,04000508.,-83.063392,42.337975,490
-83.237636,42.412248,VPO2023-00895,16730,,EVERGREEN,2023/07/19 04:00:00+00,126902,22095684.,-83.237636,42.412248,491
-82.952024,42.397612,VPO2023-00896,15100,EAST,WARREN,2023/06/08 04:00:00+00,314823,21002415.,-82.952024,42.397612,492
-83.010358,42.377761,VPO2023-00897,5051,,SEMINOLE,2023/06/08 04:00:00+00,18494,17008073.,-83.010358,42.377761,493
-83.022655,42.440939,VPO2023-00898,4616,,OUTER,2023/07/19 04:00:00+00,269347,17005729.,-83.022655,42.440939,494
-83.135858,42.385441,VPO2023-00900,4302,,BUENA VISTA,2023/07/20 04:00:00+00,79075,14005187.,-83.135858,42.385441,495
-83.136383,42.371105,VPO2023-00902,9992,,BELLETERRE,2023/06/09 04:00:00+00,72886,16018396.,-83.136383,42.371105,496
-83.162821,42.418572,VPO2023-00903,17219,,ILENE,2023/06/09 04:00:00+00,21420,16040641.,-83.162821,42.418572,497
-83.135544,42.370845,VPO2023-00904,10015,,DALRYMPLE,2023/06/09 04:00:00+00,72787,16018379.,-83.135544,42.370845,498
-83.037605,42.374275,VPO2023-00905,1867,,GRAND,2023/07/20 04:00:00+00,261899,13003558.,-83.037605,42.374275,499
-82.9612,42.357223,VPO2023-00906,59,,SAND BAR LANE,2023/07/20 04:00:00+00,334251,21000060.022,-82.9612,42.357223,500
-83.099793,42.375539,VPO2023-00909,1932,,TAYLOR,2023/07/20 04:00:00+00,61007,08002635-6,-83.099793,42.375539,501
-83.137175,42.327022,VPO2023-00910,4371,,SPRINGWELLS,2023/07/20 04:00:00+00,159011,20005456.,-83.137175,42.327022,502
-83.146995,42.360565,VPO2023-00911,8900,,ALPINE,2023/06/16 04:00:00+00,540555,16025092.,-83.146995,42.360565,503
-82.999165,42.42787,VPO2023-00912,18030,,DRESDEN,2023/07/20 04:00:00+00,225703,21034668.,-82.999165,42.42787,504
-83.226355,42.354314,VPO2023-00913,8411,,ARTESIAN,2023/12/14 05:00:00+00,159333,22085438.,-83.226355,42.354314,505
-83.199761,42.401717,VPO2023-00914,15550,,FENKELL,2023/07/20 04:00:00+00,538031,22011327.005,-83.199761,42.401717,506
-83.035933,42.368151,VPO2023-00916,5038,,MCDOUGALL,2023/06/16 04:00:00+00,261025,13010901.,-83.035933,42.368151,507
-83.175513,42.41227,VPO2023-00918,16523,,CHEYENNE,2023/07/20 04:00:00+00,88210,22026046.,-83.175513,42.41227,508
-82.947569,42.402673,VPO2023-00919,5259,,CHATSWORTH,2023/08/12 04:00:00+00,321182,21069008.,-82.947569,42.402673,509
-83.194138,42.361183,VPO2023-00920,9137,,SUSSEX,2023/08/12 04:00:00+00,194400,22047034-5,-83.194138,42.361183,510
-83.190628,42.433823,VPO2023-00921,19375,,JAMES COUZENS,2023/06/14 04:00:00+00,538808,22019581-6,-83.190628,42.433823,511
-82.987733,42.376794,VPO2023-00922,3805,,ST CLAIR,2023/06/14 04:00:00+00,300045,21038993.,-82.987733,42.376794,512
-83.165149,42.408439,VPO2023-00923,15844,,MENDOTA,2023/06/14 04:00:00+00,88848,16042934.,-83.165149,42.408439,513
-83.165705,42.408446,VPO2023-00924,15843,,MENDOTA,2023/06/14 04:00:00+00,88832,16043419.,-83.165705,42.408446,514
-83.165705,42.408446,VPO2023-00925,15849,,MENDOTA,2023/06/14 04:00:00+00,88833,16043418.,-83.165705,42.408446,515
-83.005968,42.426968,VPO2023-00926,11434,,GREINER,2023/06/14 04:00:00+00,228244,17004293.,-83.005968,42.426968,516
-83.145153,42.411968,VPO2023-00927,16247,,PRAIRIE,2023/06/14 04:00:00+00,101823,16023288.,-83.145153,42.411968,517
-83.127239,42.357995,VPO2023-00928,5287,,SPOKANE,2023/08/12 04:00:00+00,190668,16003062.,-83.127239,42.357995,518
-82.986895,42.421778,VPO2023-00929,13003,,GRATIOT,2023/06/27 04:00:00+00,247313,21028979.,-82.986895,42.421778,519
-82.942506,42.366947,VPO2023-00930,533,,LAKEWOOD,2023/06/15 04:00:00+00,339488,21055006.,-82.942506,42.366947,520
-83.001375,42.422939,VPO2023-00931,17240,,ANNOTT,2023/06/15 04:00:00+00,160166,21035357.,-83.001375,42.422939,521
-83.013007,42.380795,VPO2023-00932,8200,,GRATIOT,2023/06/15 04:00:00+00,540346,17000633-5,-83.013007,42.380795,522
-83.143511,42.345296,VPO2023-00933,7226,,AMERICAN,2023/06/16 04:00:00+00,176237,18013568.,-83.143511,42.345296,523
-83.040786,42.366794,VPO2023-00934,2629,,THEODORE,2023/08/29 04:00:00+00,260892,11001724.,-83.040786,42.366794,524
-83.006507,42.427387,VPO2023-00936,11405,,GREINER,2023/08/12 04:00:00+00,226521,17004369.,-83.006507,42.427387,525
-83.149545,42.42633,VPO2023-00937,18411,,SANTA BARBARA,2023/08/12 04:00:00+00,8257,16027858.,-83.149545,42.42633,526
-83.246013,42.376487,VPO2023-00938,12200,,BURT,2023/08/12 04:00:00+00,178578,22107443.002L,-83.246013,42.376487,527
-83.22257,42.385597,VPO2023-00939,13591,,FAUST,2023/08/15 04:00:00+00,115372,22079167.,-83.22257,42.385597,528
-83.08036,42.338917,VPO2023-00941,3388,,14TH,2023/06/20 04:00:00+00,541937,10004928.,-83.08036,42.338917,529
-83.116203,42.357628,VPO2023-00942,4306,,ALLENDALE,2023/06/20 04:00:00+00,196774,14002016.,-83.116203,42.357628,530
-83.016416,42.362526,VPO2023-00943,3539,,CONCORD,2023/06/20 04:00:00+00,485335,15011668-9,-83.016416,42.362526,531
-83.023883,42.433088,VPO2023-00945,18932,,VAN DYKE,2023/08/04 04:00:00+00,466341,17009851-2,-83.023883,42.433088,532
-83.099662,42.353188,VPO2023-00946,5724,,GRAND RIVER,2023/07/06 04:00:00+00,441122,12006118.,-83.099662,42.353188,533
-83.153816,42.445493,VPO2023-00947,8201,,EIGHT MILE,2023/06/22 04:00:00+00,350118,16009382.,-83.153816,42.445493,534
-82.986676,42.409839,VPO2023-00948,8573,,OUTER,2023/07/06 04:00:00+00,237021,21080790.,-82.986676,42.409839,535
-83.150671,42.41038,VPO2023-00950,16138,,GREENLAWN,2023/06/21 04:00:00+00,101592,16029397.,-83.150671,42.41038,536
-83.005745,42.426968,VPO2023-00951,11444,,GREINER,2023/06/21 04:00:00+00,226737,17004290.,-83.005745,42.426968,537
-83.005968,42.426968,VPO2023-00952,11440,,GREINER,2023/06/21 04:00:00+00,228245,17004291-2,-83.005968,42.426968,538
-83.153305,42.429301,VPO2023-00956,18701,,ROSELAWN,2023/07/06 04:00:00+00,6656,16030658.,-83.153305,42.429301,539
-83.156862,42.418202,VPO2023-00957,17180,,WISCONSIN,2023/07/05 04:00:00+00,11888,16034786.,-83.156862,42.418202,540
-83.182886,42.368432,VPO2023-00958,9920,,FREELAND,2023/07/05 04:00:00+00,540722,22035438.003,-83.182886,42.368432,541
-83.094202,42.377075,VPO2023-00959,1465,,TAYLOR,2023/07/05 04:00:00+00,60884,06002185.,-83.094202,42.377075,542
-83.116166,42.387767,VPO2023-00960,2491,,HIGHLAND,2023/07/05 04:00:00+00,33662,10003636.,-83.116166,42.387767,543
-83.078335,42.37544,VPO2023-00961,63,,virginia park,2023/06/23 04:00:00+00,341429,02001210.,-83.078335,42.37544,544
-83.126025,42.354876,VPO2023-00963,5332,,pacific,2023/06/23 04:00:00+00,189609,16002600.,-83.126025,42.354876,545
-83.150758,42.415495,VPO2023-00965,16730,,GREENLAWN,2023/07/05 04:00:00+00,85380,16029446.,-83.150758,42.415495,546
-83.098244,42.317504,VPO2023-00967,1578,,FERDINAND,2023/06/23 04:00:00+00,178296,16009994.,-83.098244,42.317504,547
-83.210732,42.427387,VPO2023-00968,18651,,FERGUSON,2023/07/07 04:00:00+00,61676,22063663.,-83.210732,42.427387,548
-83.216336,42.430334,VPO2023-00971,17600,W,SEVEN MILE,2023/06/26 04:00:00+00,73358,22017105-6,-83.216336,42.430334,549
-83.158713,42.370379,VPO2023-00972,10007,,BEECHDALE,2023/06/26 04:00:00+00,210387,18016085.,-83.158713,42.370379,550
-83.14882,42.409586,VPO2023-00973,7701,,PURITAN,2023/07/07 04:00:00+00,466520,16007511.,-83.14882,42.409586,551
-83.149515,42.40962,VPO2023-00974,7747,,PURITAN,2023/07/18 04:00:00+00,94911,16007518.,-83.149515,42.40962,552
-83.116613,42.408654,VPO2023-00975,15743,,JOSLYN,2023/07/06 04:00:00+00,9853,08007302.,-83.116613,42.408654,553
-83.122702,42.41592,VPO2023-00976,16854,,INVERNESS,2023/07/06 04:00:00+00,26833,08009811.,-83.122702,42.41592,554
-83.215105,42.441146,VPO2023-00977,20211,,LINDSAY,2023/07/06 04:00:00+00,69213,22067053.,-83.215105,42.441146,555
-83.150258,42.428646,VPO2023-00978,18650,,WOODINGHAM,2023/08/12 04:00:00+00,14287,16028502.,-83.150258,42.428646,556
-83.109004,42.359962,VPO2023-00983,3307,,HOGARTH,2023/07/06 04:00:00+00,71400,12001382.,-83.109004,42.359962,557
-83.168878,42.386532,VPO2023-00984,13545,,MEYERS,2023/07/25 04:00:00+00,180057,22020513.,-83.168878,42.386532,558
-82.966429,42.40141,VPO2023-00985,5930,,EASTLAWN,2023/06/29 04:00:00+00,313523,21053108.,-82.966429,42.40141,559
-83.161272,42.382154,VPO2023-00986,12699,,ILENE,2023/06/29 04:00:00+00,213632,16040919.,-83.161272,42.382154,560
-83.140321,42.352218,VPO2023-00987,7022,,TIREMAN,2023/06/30 04:00:00+00,540148,16002077-81,-83.140321,42.352218,561
-83.006667,42.434169,VPO2023-00988,11412,,SEVEN MILE,2023/06/30 04:00:00+00,252123,17004923.,-83.006667,42.434169,562
-83.188828,42.438259,VPO2023-00989,14438,,PEMBROKE,2023/07/06 04:00:00+00,20103,22018347.001,-83.188828,42.438259,563
-83.126515,42.402101,VPO2023-00991,14960,,LINWOOD,2023/07/06 04:00:00+00,537890,08010714.,-83.126515,42.402101,564
-83.000473,42.355326,VPO2023-00994,1495,,SEYBURN,2023/06/30 04:00:00+00,330267,17011006.,-83.000473,42.355326,565
-83.145559,42.420207,VPO2023-00995,17389,,PRAIRIE,2023/06/30 04:00:00+00,12505,16023216.,-83.145559,42.420207,566
-82.939991,42.411876,VPO2023-00996,5984,,KENSINGTON,2023/06/30 04:00:00+00,306585,21072859.,-82.939991,42.411876,567
-83.150209,42.358361,VPO2023-00997,8615,,ROSELAWN,2023/07/06 04:00:00+00,197952,18014263.,-83.150209,42.358361,568
-82.93458,42.409649,VPO2023-00998,5570,,GRAYTON,2023/06/30 04:00:00+00,324749,21074013.,-82.93458,42.409649,569
-83.142971,42.436429,VPO2023-00999,19475,,STOEPEL,2023/06/30 04:00:00+00,24946,16019337.,-83.142971,42.436429,570
-83.146003,42.430375,VPO2023-01000,18943,,PRAIRIE,2023/07/06 04:00:00+00,14075,16023140.,-83.146003,42.430375,571
-82.936952,42.361841,VPO2023-01001,246,,CHALMERS,2023/06/30 04:00:00+00,337463,21055089.,-82.936952,42.361841,572
-83.150672,42.425236,VPO2023-01002,18261,,WOODINGHAM,2023/06/30 04:00:00+00,9282,16028756.,-83.150672,42.425236,573
-83.006595,42.43417,VPO2023-01003,11416,EAST,SEVEN MILE,2023/06/30 04:00:00+00,535182,17004922.,-83.006595,42.43417,574
-83.152684,42.417616,VPO2023-01004,17133,,ROSELAWN,2023/06/30 04:00:00+00,13539,16030759.,-83.152684,42.417616,575
-83.245377,42.356559,VPO2023-01005,8666,,BURT,2023/08/13 04:00:00+00,163090,22107330.,-83.245377,42.356559,576
-83.168917,42.387202,VPO2023-01006,13593,,MEYERS,2023/07/07 04:00:00+00,180051,22020506.,-83.168917,42.387202,577
-83.127274,42.340018,VPO2023-01007,5501,,LIVERNOIS,2023/07/06 04:00:00+00,494830,18006982.,-83.127274,42.340018,578
-83.132978,42.427221,VPO2023-01010,18450,,WILDEMERE,2023/07/06 04:00:00+00,320751,02003085.,-83.132978,42.427221,579
-82.968705,42.403208,VPO2023-01011,13930,,HARPER,2023/07/06 04:00:00+00,537550,21003987.002L,-82.968705,42.403208,580
-83.097347,42.377995,VPO2023-01013,1615,,ATKINSON,2023/07/03 04:00:00+00,40927,08002752.,-83.097347,42.377995,581
-82.934491,42.361634,VPO2023-01015,209,,PHILIP,2023/07/09 04:00:00+00,337387,21060856.,-82.934491,42.361634,582
-82.934642,42.415633,VPO2023-01016,6170,,OLDTOWN,2023/07/06 04:00:00+00,307821,21075436.,-82.934642,42.415633,583
-83.109301,42.348313,VPO2023-01017,3931,,MCGRAW,2023/08/13 04:00:00+00,544679,14008027.001,-83.109301,42.348313,584
-83.14385,42.362852,VPO2023-01018,9148,,AMERICAN,2023/07/05 04:00:00+00,197692,16023728.,-83.14385,42.362852,585
-83.144338,42.36358,VPO2023-01019,9203,,AMERICAN,2023/07/05 04:00:00+00,205315,16024347.,-83.144338,42.36358,586
-83.125383,42.368552,VPO2023-01021,9277,NORTH,MARTINDALE,2023/07/05 04:00:00+00,71908,14007803.,-83.125383,42.368552,587
-83.224306,42.424135,VPO2023-01024,18297,,FAUST,2023/07/10 04:00:00+00,118199,22078994.,-83.224306,42.424135,588
-82.973555,42.388979,VPO2023-01025,4808,,CONNER,2023/07/05 04:00:00+00,471165,21046193-4,-82.973555,42.388979,589
-83.259094,42.422094,VPO2023-01029,22042,,CURTIS,2023/07/12 04:00:00+00,112531,22015027.,-83.259094,42.422094,590
-83.187348,42.370071,VPO2023-01030,10040,,HUBBELL,2023/08/13 04:00:00+00,209564,22038818.,-83.187348,42.370071,591
-83.266897,42.412002,VPO2023-01031,16754,,WEST PARKWAY,2023/08/13 04:00:00+00,131110,22119288.,-83.266897,42.412002,592
-83.070017,42.426453,VPO2023-01032,3126,,BERRY,2023/08/10 04:00:00+00,288608,09006949.,-83.070017,42.426453,593
-83.227178,42.346441,VPO2023-01033,7421,,WARWICK,2023/08/13 04:00:00+00,165223,22086700.,-83.227178,42.346441,594
-83.029191,42.443319,VPO2023-01035,20042,,ROGGE,2023/08/13 04:00:00+00,267018,15006551.,-83.029191,42.443319,595
-83.135571,42.31052,VPO2023-01036,2492,,WOODMERE,2023/08/16 04:00:00+00,34898,20004440.,-83.135571,42.31052,596
-83.142057,42.426904,VPO2023-01039,18446,,STOEPEL,2023/07/06 04:00:00+00,8056,16019108.,-83.142057,42.426904,597
-83.145342,42.361666,VPO2023-01040,9065,,BRYDEN,2023/08/13 04:00:00+00,211115,16024731.,-83.145342,42.361666,598
-83.226759,42.40444,VPO2023-01041,18908,,GRAND RIVER,2023/07/20 04:00:00+00,509574,22008083-4,-83.226759,42.40444,599
-83.248377,42.412498,VPO2023-01042,20939,W,GRAND RIVER,2023/07/06 04:00:00+00,353156,22007425-30,-83.248377,42.412498,600
-83.070307,42.425617,VPO2023-01043,17955,,CHAREST,2023/08/10 04:00:00+00,289842,09010144-5,-83.070307,42.425617,601
-82.948265,42.427871,VPO2023-01044,12000,,WAYBURN,2023/08/13 04:00:00+00,311028,21063660.,-82.948265,42.427871,602
-83.102754,42.372919,VPO2023-01045,2257,,HAZELWOOD,2023/08/13 04:00:00+00,59402,10002164.,-83.102754,42.372919,603
-83.130618,42.328303,VPO2023-01046,7139,,ST JOHN,2023/07/25 04:00:00+00,162410,18002195.,-83.130618,42.328303,604
-83.233164,42.355206,VPO2023-01047,8484,,AUBURN,2023/08/13 04:00:00+00,160844,22092256.,-83.233164,42.355206,605
-83.233038,42.352602,VPO2023-01048,8224,,AUBURN,2023/08/13 04:00:00+00,156054,22092230.,-83.233038,42.352602,606
-82.985011,42.371778,VPO2023-01049,3018,,GARLAND,2023/07/12 04:00:00+00,343456,21037766.,-82.985011,42.371778,607
-83.144299,42.367125,VPO2023-01050,9538,,AMERICAN,2023/07/07 04:00:00+00,202679,16023764.,-83.144299,42.367125,608
-83.160878,42.387417,VPO2023-01051,13592,,ILENE,2023/08/13 04:00:00+00,181714,16040073.,-83.160878,42.387417,609
-83.022701,42.378462,VPO2023-01052,1361,E,GRAND BLVD,2023/08/13 04:00:00+00,535357,15007906-8,-83.022701,42.378462,610
-82.947463,42.433105,VPO2023-01055,18954,,MCCORMICK,2023/11/17 05:00:00+00,305253,21080089.,-82.947463,42.433105,611
-83.17199,42.44358,VPO2023-01057,20434,,APPOLINE,2023/08/13 04:00:00+00,16695,22021359.,-83.17199,42.44358,612
-82.988544,42.406958,VPO2023-01058,12047,,WILSHIRE,2023/08/13 04:00:00+00,378049,21008555.,-82.988544,42.406958,613
-82.971274,42.442333,VPO2023-01059,14720,,STATE FAIR,2023/08/14 04:00:00+00,143591,21024082.,-82.971274,42.442333,614
-82.947365,42.423459,VPO2023-01060,11372,,ROXBURY,2023/07/10 04:00:00+00,317837,21058883.,-82.947365,42.423459,615
-83.010981,42.396027,VPO2023-01061,8982,,ISHAM,2023/08/14 04:00:00+00,4,19004164.,-83.010981,42.396027,616
-83.051952,42.41756,VPO2023-01062,13731,,CONLEY,2023/08/14 04:00:00+00,271698,13016854.,-83.051952,42.41756,617
-82.982686,42.428069,VPO2023-01063,13785,,GRATIOT,2023/07/11 04:00:00+00,225576,21029029-30,-82.982686,42.428069,618
-82.931537,42.405813,VPO2023-01064,16941,E,WARREN,2023/07/11 04:00:00+00,535670,21002930-6,-82.931537,42.405813,619
-83.24012,42.421125,VPO2023-01068,17636,,HEYDEN,2023/07/18 04:00:00+00,109669,22099297.,-83.24012,42.421125,620
-83.180089,42.405364,VPO2023-01070,15500,,TRACEY,2023/07/12 04:00:00+00,87854,22031332.,-83.180089,42.405364,621
-83.180085,42.405102,VPO2023-01071,15484,,TRACEY,2023/07/12 04:00:00+00,87552,22031329-30,-83.180085,42.405102,622
,,VPO2023-01072,296,,GRAND,2023/08/15 04:00:00+00,549348,,,,623
-83.262324,42.408335,VPO2023-01073,16167,,LAMPHERE,2023/07/12 04:00:00+00,131333,22116410-2,-83.262324,42.408335,624
-83.180083,42.405264,VPO2023-01074,15496,,TRACEY,2023/07/12 04:00:00+00,87853,22031331.,-83.180083,42.405264,625
-83.088678,42.373359,VPO2023-01075,1200,,EUCLID,2023/08/22 04:00:00+00,59595,06001911.,-83.088678,42.373359,626
-83.077298,42.39003,VPO2023-01076,576,,BOSTON,2023/07/26 04:00:00+00,346665,03002685.,-83.077298,42.39003,627
-83.025166,42.379654,VPO2023-01077,5805,,HELEN,2023/08/15 04:00:00+00,539947,15000607.,-83.025166,42.379654,628
-83.239436,42.427494,VPO2023-01078,18920,,VAUGHAN,2023/07/13 04:00:00+00,103605,22097943.,-83.239436,42.427494,629
-83.008049,42.382158,VPO2023-01079,5372,,FISCHER,2023/08/15 04:00:00+00,30128,19010635.,-83.008049,42.382158,630
-83.005773,42.380017,VPO2023-01080,5079,,CRANE,2023/08/15 04:00:00+00,23718,19010125.,-83.005773,42.380017,631
-83.209741,42.382953,VPO2023-01081,12848,,GRANDMONT,2023/07/13 04:00:00+00,135415,22064823.,-83.209741,42.382953,632
-83.199938,42.424141,VPO2023-01082,18267,,GREENFIELD,2023/07/13 04:00:00+00,62477,22050666-7,-83.199938,42.424141,633
-83.219382,42.372429,VPO2023-01083,18300,,PLYMOUTH,2023/07/13 04:00:00+00,538535,22005759.,-83.219382,42.372429,634
-83.200085,42.427919,VPO2023-01084,18675,,GREENFIELD,2023/07/13 04:00:00+00,62439,22050606.,-83.200085,42.427919,635
-83.169474,42.398686,VPO2023-01086,14861,,MEYERS,2023/07/13 04:00:00+00,537854,22020422.,-83.169474,42.398686,636
-83.209734,42.426963,VPO2023-01087,18621,,ASBURY PARK,2023/08/15 04:00:00+00,64644,22061799.,-83.209734,42.426963,637
-83.123663,42.409265,VPO2023-01088,15898,,BAYLIS,2023/08/15 04:00:00+00,8891,08010012.,-83.123663,42.409265,638
-83.143339,42.419372,VPO2023-01089,17329,,SANTA ROSA,2023/08/16 04:00:00+00,12448,16020575.,-83.143339,42.419372,639
-82.999297,42.358374,VPO2023-01091,8022,,KERCHEVAL,2023/07/14 04:00:00+00,330932,17000115.,-82.999297,42.358374,640
-83.13013,42.403132,VPO2023-01092,2934,,FENKELL,2023/07/14 04:00:00+00,539382,12005362-6,-83.13013,42.403132,641
-83.233193,42.429964,VPO2023-01093,19350,,SEVEN MILE,2023/07/14 04:00:00+00,535850,22016978.,-83.233193,42.429964,642
-83.146239,42.400541,VPO2023-01095,7518,,CHALFONTE,2023/07/14 04:00:00+00,91943,16006207.,-83.146239,42.400541,643
-83.086846,42.351875,VPO2023-01096,5181,,WABASH,2023/07/14 04:00:00+00,254396,10004651.,-83.086846,42.351875,644
-83.215549,42.360529,VPO2023-01097,9061,,ARCHDALE,2023/07/17 04:00:00+00,164039,22072125.,-83.215549,42.360529,645
-83.112594,42.37993,VPO2023-01099,2544,,CALVERT,2023/07/24 04:00:00+00,50340,10003025.,-83.112594,42.37993,646
-83.097907,42.314045,VPO2023-01100,1171,,MORRELL,2023/08/17 04:00:00+00,153606,16010396.,-83.097907,42.314045,647
-83.117487,42.327584,VPO2023-01101,3508,,LIVERNOIS,2023/07/17 04:00:00+00,154414,16017125.,-83.117487,42.327584,648
-83.156592,42.363316,VPO2023-01104,5070,,OAKMAN,2023/08/14 04:00:00+00,199353,18016374.,-83.156592,42.363316,649
-83.025,42.44528,VPO2023-01105,20205,,VAN DYKE,2023/07/17 04:00:00+00,377930,15005166-70,-83.025,42.44528,650
-83.162854,42.386132,VPO2023-01107,13500,,BIRWOOD,2023/08/14 04:00:00+00,181663,16041874.,-83.162854,42.386132,651
-83.003735,42.368567,VPO2023-01109,3635,,SEMINOLE,2023/08/17 04:00:00+00,340062,17008151.,-83.003735,42.368567,652
-83.114602,42.3506,VPO2023-01110,6343,,STANFORD,2023/08/17 04:00:00+00,185604,14011677.,-83.114602,42.3506,653
-83.080839,42.344121,VPO2023-01111,4135,,VERMONT,2023/07/20 04:00:00+00,411822,08008594.002L,-83.080839,42.344121,654
-83.151306,42.373392,VPO2023-01112,10917,,GRAND RIVER,2023/08/10 04:00:00+00,535147,18006758.,-83.151306,42.373392,655
-83.166393,42.412956,VPO2023-01114,16564,,PINEHURST,2023/08/17 04:00:00+00,94043,16043828.,-83.166393,42.412956,656
-83.12118,42.38946,VPO2023-01115,2669,,GLENDALE,2023/08/03 04:00:00+00,38015,10003962.,-83.12118,42.38946,657
-83.139246,42.352313,VPO2023-01117,6666,,TIREMAN,2023/07/19 04:00:00+00,216013,16002083-8,-83.139246,42.352313,658
-83.059236,42.351994,VPO2023-01118,80,EAST,WILLIS,2023/07/24 04:00:00+00,228003,01001046.,-83.059236,42.351994,659
-82.965655,42.404122,VPO2023-01119,14306,,HARPER,2023/07/19 04:00:00+00,537680,21003982.001,-82.965655,42.404122,660
-82.96573,42.404098,VPO2023-01120,14300,,HARPER,2023/07/19 04:00:00+00,537675,21003982.002L,-82.96573,42.404098,661
-83.143805,42.41624,VPO2023-01121,16906,,MONICA,2023/10/05 04:00:00+00,84620,16021282.,-83.143805,42.41624,662
-83.016416,42.362526,VPO2023-01124,3539,,CONCORD,2023/07/19 04:00:00+00,485335,15011668-9,-83.016416,42.362526,663
-83.188343,42.395797,VPO2023-01128,14584,,HUBBELL,2023/08/16 04:00:00+00,133378,22038990.,-83.188343,42.395797,664
-82.97413,42.437938,VPO2023-01130,14456,,CORAM,2023/08/17 04:00:00+00,145586,21022094.002L,-82.97413,42.437938,665
-83.132214,42.400123,VPO2023-01131,14881,,WILDEMERE,2023/07/20 04:00:00+00,11973,12005992.,-83.132214,42.400123,666
-83.077308,42.321473,VPO2023-01132,1234,,ST ANNE,2023/07/20 04:00:00+00,514908,10000111.,-83.077308,42.321473,667
-83.026557,42.385573,VPO2023-01133,7200,,HARPER,2023/08/16 04:00:00+00,349787,15000759.001,-83.026557,42.385573,668
-83.172164,42.40013,VPO2023-01137,15000,,SORRENTO,2023/08/17 04:00:00+00,86558,22023550.,-83.172164,42.40013,669
-83.125876,42.346969,VPO2023-01139,6074,,EPWORTH,2023/07/24 04:00:00+00,180737,16014747.,-83.125876,42.346969,670
-83.101489,42.319834,VPO2023-01140,2010,,MORRELL,2023/08/17 04:00:00+00,218310,16010310.,-83.101489,42.319834,671
-82.994405,42.43248,VPO2023-01142,18694,,WALTHAM,2023/07/28 04:00:00+00,222566,21032627.,-82.994405,42.43248,672
-82.992238,42.44,VPO2023-01148,19610,,WESTPHALIA,2023/08/03 04:00:00+00,225369,21031691.,-82.992238,42.44,673
-83.059043,42.352058,VPO2023-01149,92,EAST,WILLIS,2023/07/25 04:00:00+00,258950,01001045.,-83.059043,42.352058,674
-83.129934,42.413449,VPO2023-01150,16560,,LAWTON,2023/07/25 04:00:00+00,27579,12006217.,-83.129934,42.413449,675
-83.140634,42.401709,VPO2023-01152,15133,,LIVERNOIS,2023/08/17 04:00:00+00,351743,16017908.,-83.140634,42.401709,676
-83.111033,42.308739,VPO2023-01153,1216,,WATERMAN,2023/07/25 04:00:00+00,31993,18008128.,-83.111033,42.308739,677
-83.001424,42.349897,VPO2023-01154,638,,FIELD,2023/07/27 04:00:00+00,328984,17013498.,-83.001424,42.349897,678
-82.953544,42.371407,VPO2023-01155,1157,,dickerson,2023/07/26 04:00:00+00,323650,21049387.,-82.953544,42.371407,679
-83.077355,42.418801,VPO2023-01156,2431,E,MCNICHOLS,2023/08/19 04:00:00+00,280468,09006720-3,-83.077355,42.418801,680
-82.972617,42.436827,VPO2023-01157,14534,,LAPPIN,2023/08/11 04:00:00+00,146975,21021743.,-82.972617,42.436827,681
-82.971963,42.436817,VPO2023-01158,14570,,LAPPIN,2023/08/10 04:00:00+00,147035,21021738.,-82.971963,42.436817,682
-83.11919,42.370104,VPO2023-01160,3767,,ATKINSON,2023/07/26 04:00:00+00,542024,14003460.,-83.11919,42.370104,683
-83.203681,42.428292,VPO2023-01163,18706,,PREVOST,2023/08/19 04:00:00+00,62269,22055148.,-83.203681,42.428292,684
-83.169729,42.403405,VPO2023-01165,15365,,MEYERS,2023/08/19 04:00:00+00,93711,22020357.,-83.169729,42.403405,685
-83.148319,42.408682,VPO2023-01166,15880,,TURNER,2023/08/19 04:00:00+00,90868,16027445.,-83.148319,42.408682,686
-82.986106,42.435097,VPO2023-01168,13513,,SEVEN MILE,2023/07/27 04:00:00+00,351230,21021083.,-82.986106,42.435097,687
-82.95919,42.415098,VPO2023-01169,10631,,STRATMANN,2023/08/19 04:00:00+00,301917,21058600.,-82.95919,42.415098,688
-83.037197,42.36718,VPO2023-01171,2941,,WARREN,2023/08/19 04:00:00+00,427187,11003521.,-83.037197,42.36718,689
-83.020943,42.437432,VPO2023-01172,8161,,BLISS,2023/08/22 04:00:00+00,263092,17005407.,-83.020943,42.437432,690
-83.18236,42.426314,VPO2023-01173,18459,,JAMES COUZENS,2023/07/28 04:00:00+00,538580,22019686-8,-83.18236,42.426314,691
-83.208717,42.397079,VPO2023-01175,16360,WEST,GRAND RIVER,2023/07/28 04:00:00+00,535640,22008216-7,-83.208717,42.397079,692
-83.211149,42.426435,VPO2023-01176,18518,,BILTMORE,2023/08/19 04:00:00+00,67711,22064089.001,-83.211149,42.426435,693
-83.149206,42.394244,VPO2023-01181,14355,,CLOVERDALE,2023/09/19 04:00:00+00,215626,16005903.023,-83.149206,42.394244,694
-83.145983,42.330477,VPO2023-01183,8414,,MICHIGAN,2023/08/19 04:00:00+00,540409,20004688-90,-83.145983,42.330477,695
-83.156959,42.409267,VPO2023-01184,15895,,WISCONSIN,2023/08/19 04:00:00+00,89053,16035170.,-83.156959,42.409267,696
-83.203082,42.353061,VPO2023-01185,8225,,MANSFIELD,2023/08/19 04:00:00+00,189067,22058034-5,-83.203082,42.353061,697
-83.19447,42.424374,VPO2023-01186,18266,,COYLE,2023/08/19 04:00:00+00,62934,22045088.,-83.19447,42.424374,698
-83.175006,42.401888,VPO2023-01189,13203,,FENKELL,2023/08/01 04:00:00+00,425744,22010652-4,-83.175006,42.401888,699
-83.104722,42.417958,VPO2023-01190,17100,,WOODWARD,2023/08/01 04:00:00+00,538295,01009680-1,-83.104722,42.417958,700
-83.252313,42.428961,VPO2023-01191,21305,W,SEVEN MILE,2023/08/03 04:00:00+00,388753,22016630-1,-83.252313,42.428961,701
-83.223108,42.348845,VPO2023-01192,7730,,BRACE,2023/09/13 04:00:00+00,168282,22080955.,-83.223108,42.348845,702
-83.093536,42.378728,VPO2023-01193,1256,,CLAIRMOUNT,2023/08/19 04:00:00+00,450410,06002287.,-83.093536,42.378728,703
-83.276187,42.412828,VPO2023-01194,16840,,TELEGRAPH,2023/11/17 05:00:00+00,131009,22122522-3,-83.276187,42.412828,704
-83.040963,42.419335,VPO2023-01197,6025,,MCNICHOLS,2023/08/16 04:00:00+00,473544,13007366-7,-83.040963,42.419335,705
-83.204404,42.398339,VPO2023-01198,16014,,HACKETT,2023/08/02 04:00:00+00,137342,22010494.,-83.204404,42.398339,706
-83.146387,42.441371,VPO2023-01199,20103,,PRAIRIE,2023/08/03 04:00:00+00,14000,16023072.,-83.146387,42.441371,707
-83.167985,42.388392,VPO2023-01201,10820,,SCHOOLCRAFT,2023/08/03 04:00:00+00,542787,16045805.,-83.167985,42.388392,708
-83.024265,42.405215,VPO2023-01202,7575,,LYNCH,2023/08/16 04:00:00+00,540238,15002540-8,-83.024265,42.405215,709
-83.084824,42.428321,VPO2023-01203,18500,,ORLEANS,2023/08/16 04:00:00+00,286376,09017812.,-83.084824,42.428321,710
-83.005179,42.348518,VPO2023-01204,684,,CANTON,2023/08/16 04:00:00+00,489542,15009894.001,-83.005179,42.348518,711
-83.171494,42.44343,VPO2023-01205,20421,,MEYERS,2023/08/16 04:00:00+00,16521,22019847-8,-83.171494,42.44343,712
-83.145308,42.354422,VPO2023-01206,8161,,BRYDEN,2023/08/18 04:00:00+00,188338,16024801.,-83.145308,42.354422,713
-83.193045,42.359488,VPO2023-01208,8883,,COYLE,2023/08/18 04:00:00+00,198949,22045778.,-83.193045,42.359488,714
-83.242303,42.346835,VPO2023-01209,7600,,BRAILE,2023/08/19 04:00:00+00,165340,22104931.,-83.242303,42.346835,715
-83.211982,42.363848,VPO2023-01210,9335,,MEMORIAL,2023/08/19 04:00:00+00,199279,22067875.,-83.211982,42.363848,716
-83.009057,42.429578,VPO2023-01211,18444,,BELAND,2023/08/19 04:00:00+00,225010,17015306.,-83.009057,42.429578,717
-83.004407,42.435596,VPO2023-01212,19176,,HOOVER,2023/08/19 04:00:00+00,213531,21036275.,-83.004407,42.435596,718
-83.177352,42.401932,VPO2023-01213,13419,,FENKELL,2023/08/19 04:00:00+00,537402,22010675.,-83.177352,42.401932,719
-82.969294,42.441942,VPO2023-01214,14823,,TACOMA,2023/08/19 04:00:00+00,126720,21023845.,-82.969294,42.441942,720
-82.95318,42.415757,VPO2023-01216,10443,,GREENSBORO,2023/08/19 04:00:00+00,314152,21065328.,-82.95318,42.415757,721
-82.926216,42.409232,VPO2023-01217,5115,,NEFF,2023/08/04 04:00:00+00,324634,21076303.,-82.926216,42.409232,722
-83.258439,42.402389,VPO2023-01218,15417,,ROCKDALE,2023/08/30 04:00:00+00,130839,22114373-4,-83.258439,42.402389,723
-83.079319,42.42662,VPO2023-01220,18057,,FLEMING,2023/08/19 04:00:00+00,290086,09014843.,-83.079319,42.42662,724
-82.94414,42.417235,VPO2023-01222,9974,,BISHOP,2023/08/19 04:00:00+00,297679,21073659.,-82.94414,42.417235,725
-82.981933,42.412476,VPO2023-01223,12733,,ROSEMARY,2023/08/19 04:00:00+00,237369,21009733.,-82.981933,42.412476,726
-83.079415,42.429068,VPO2023-01225,18553,,FLEMING,2023/08/19 04:00:00+00,289748,09014815.,-83.079415,42.429068,727
-82.986118,42.435591,VPO2023-01226,19140,,PELKEY,2023/08/19 04:00:00+00,222344,21029939.,-82.986118,42.435591,728
-82.967893,42.439956,VPO2023-01228,14938,,LIBERAL,2023/08/07 04:00:00+00,131346,21022720.,-82.967893,42.439956,729
-83.161713,42.377583,VPO2023-01229,12175,,GRAND RIVER,2023/08/07 04:00:00+00,435578,18006822-5,-83.161713,42.377583,730
-82.999581,42.358246,VPO2023-01231,8002,,KERCHEVAL,2023/08/07 04:00:00+00,540974,17000118.,-82.999581,42.358246,731
-82.926216,42.409232,VPO2023-01233,5115,,NEFF,2023/08/07 04:00:00+00,324634,21076303.,-82.926216,42.409232,732
-83.198877,42.342643,VPO2023-01234,6885,,MONTROSE,2023/08/07 04:00:00+00,173289,22053485.,-83.198877,42.342643,733
-82.920657,42.409698,VPO2023-01235,17839,E,WARREN,2023/08/07 04:00:00+00,324169,21003027-8,-82.920657,42.409698,734
-83.158557,42.368577,VPO2023-01237,9809,,WYOMING,2023/08/07 04:00:00+00,207398,18016096.,-83.158557,42.368577,735
-82.974591,42.448546,VPO2023-01238,14456,,CARLISLE,2023/08/07 04:00:00+00,183863,21027503.,-82.974591,42.448546,736
-83.117689,42.405605,VPO2023-01240,15468,,ROSA PARKS BLVD,2023/08/07 04:00:00+00,10775,08007734.,-83.117689,42.405605,737
-82.991312,42.371967,VPO2023-01241,3477,,PENNSYLVANIA,2023/08/07 04:00:00+00,343485,19006030.,-82.991312,42.371967,738
-83.164198,42.412594,VPO2023-01242,16532,,BIRWOOD,2023/08/19 04:00:00+00,98131,16042068.,-83.164198,42.412594,739
-83.182866,42.410274,VPO2023-01243,16165,,STANSBURY,2023/08/19 04:00:00+00,86452,22033903.,-83.182866,42.410274,740
-83.164679,42.41295,VPO2023-01244,16559,,BIRWOOD,2023/08/19 04:00:00+00,93901,16042472.,-83.164679,42.41295,741
-83.213434,42.427141,VPO2023-01245,18636,,LINDSAY,2023/08/19 04:00:00+00,78746,22066899.,-83.213434,42.427141,742
-82.994463,42.370439,VPO2023-01247,3493,,BELVIDERE,2023/08/07 04:00:00+00,342378,19007940.,-82.994463,42.370439,743
-83.143182,42.36229,VPO2023-01248,9105,,PRAIRIE,2023/08/07 04:00:00+00,196335,16023532.,-83.143182,42.36229,744
-82.940521,42.421859,VPO2023-01249,10647,,CADIEUX,2023/08/15 04:00:00+00,536797,21075160.,-82.940521,42.421859,745
-82.993015,42.444056,VPO2023-01250,20015,,WESTPHALIA,2023/08/19 04:00:00+00,172375,21031803.,-82.993015,42.444056,746
-82.993643,42.428288,VPO2023-01251,18053,,GOULBURN,2023/08/25 04:00:00+00,225268,21032428.,-82.993643,42.428288,747
-82.992904,42.440914,VPO2023-01252,19731,,WESTPHALIA,2023/08/19 04:00:00+00,163043,21031828.,-82.992904,42.440914,748
-82.993375,42.437168,VPO2023-01253,19338,,GOULBURN,2023/08/19 04:00:00+00,218791,21032157.,-82.993375,42.437168,749
-83.224342,42.429643,VPO2023-01254,18501,W,SEVEN MILE,2023/08/17 04:00:00+00,535786,22016383-4,-83.224342,42.429643,750
-83.038334,42.342571,VPO2023-01255,2033,,RUSSELL,2023/08/19 04:00:00+00,505324,05003461-76,-83.038334,42.342571,751
-83.094133,42.359487,VPO2023-01256,6128,,15TH,2023/08/10 04:00:00+00,71179,10005599.,-83.094133,42.359487,752
-83.034469,42.349784,VPO2023-01257,2123,,GRATIOT,2023/08/08 04:00:00+00,348623,09001320.,-83.034469,42.349784,753
-83.255997,42.416712,VPO2023-01258,17242,,GREYDALE,2023/08/09 04:00:00+00,101302,22112707.,-83.255997,42.416712,754
-83.026634,42.437713,VPO2023-01259,19423,,SPENCER,2023/08/19 04:00:00+00,252644,15006104.,-83.026634,42.437713,755
-83.076661,42.427362,VPO2023-01260,18106,,MACKAY,2023/08/19 04:00:00+00,288760,09013108.,-83.076661,42.427362,756
-83.204811,42.408871,VPO2023-01261,16016,,PURITAN,2023/08/19 04:00:00+00,146089,22012219.002,-83.204811,42.408871,757
-83.034073,42.370136,VPO2023-01262,3367,,FARNSWORTH,2023/08/21 04:00:00+00,261505,13002986.,-83.034073,42.370136,758
-83.033968,42.37016,VPO2023-01263,3373,,FARNSWORTH,2023/08/19 04:00:00+00,261507,13002987.,-83.033968,42.37016,759
-83.216129,42.437904,VPO2023-01264,19925,,OAKFIELD,2023/08/19 04:00:00+00,80042,22069513.,-83.216129,42.437904,760
-83.150084,42.425822,VPO2023-01267,18304,,WOODINGHAM,2023/08/19 04:00:00+00,9273,16028476.,-83.150084,42.425822,761
-83.258418,42.423029,VPO2023-01268,18311,,LAHSER,2023/08/09 04:00:00+00,112383,22113674.,-83.258418,42.423029,762
-83.137212,42.40737,VPO2023-01269,15768,,HOLMUR,2023/08/19 04:00:00+00,7596,12012442.,-83.137212,42.40737,763
-83.137631,42.40654,VPO2023-01270,15709,,HOLMUR,2023/08/24 04:00:00+00,7572,12012517.,-83.137631,42.40654,764
-83.137239,42.407865,VPO2023-01271,15804,,HOLMUR,2023/08/19 04:00:00+00,543096,12012448.,-83.137239,42.407865,765
-83.23534,42.429417,VPO2023-01272,19533,,SEVEN MILE,2023/08/10 04:00:00+00,535864,22016492-4,-83.23534,42.429417,766
-83.223202,42.352677,VPO2023-01273,8220,,BRACE,2023/08/10 04:00:00+00,170245,22080986.,-83.223202,42.352677,767
-82.993037,42.444162,VPO2023-01275,20023,,WESTPHALIA,2023/08/10 04:00:00+00,172386,21031802.,-82.993037,42.444162,768
-83.149473,42.423272,VPO2023-01276,18051,,SANTA BARBARA,2023/08/30 04:00:00+00,10150,16027881-2,-83.149473,42.423272,769
-82.944036,42.404455,VPO2023-01280,5291,,DEVONSHIRE,2023/08/10 04:00:00+00,332402,21070578.,-82.944036,42.404455,770
-83.199601,42.364174,VPO2023-01281,9345,,MONTROSE,2023/08/10 04:00:00+00,200127,22053391.,-83.199601,42.364174,771
-83.01358,42.434509,VPO2023-01283,11037,E,SEVEN MILE,2023/08/11 04:00:00+00,350710,17005118-20,-83.01358,42.434509,772
-82.977916,42.36485,VPO2023-01286,1467,,HARDING,2023/08/14 04:00:00+00,333971,21039913.,-82.977916,42.36485,773
-82.985017,42.40221,VPO2023-01287,12066,,MAIDEN,2023/08/19 04:00:00+00,229500,21006510.,-82.985017,42.40221,774
-83.195031,42.39544,VPO2023-01288,14571,,SUSSEX,2023/08/19 04:00:00+00,543761,22046787.,-83.195031,42.39544,775
-83.115762,42.384867,VPO2023-01289,2564,,ELMHURST,2023/08/19 04:00:00+00,52694,10003349.,-83.115762,42.384867,776
-82.992264,42.360289,VPO2023-01290,1766,,FISCHER,2023/08/15 04:00:00+00,333157,19010392.,-82.992264,42.360289,777
-83.192825,42.369916,VPO2023-01291,10036,,COYLE,2023/08/19 04:00:00+00,208710,22044731.,-83.192825,42.369916,778
-82.955343,42.439022,VPO2023-01292,16020,,NOVARA,2023/08/19 04:00:00+00,136861,21022350.,-82.955343,42.439022,779
-82.978551,42.365795,VPO2023-01293,1547,,HARDING,2023/09/06 04:00:00+00,334100,21039902.,-82.978551,42.365795,780
-83.214383,42.435138,VPO2023-01295,19495,,LINDSAY,2023/08/19 04:00:00+00,77876,22067104-5,-83.214383,42.435138,781
-82.980894,42.43095,VPO2023-01297,13995,,GRATIOT,2023/08/19 04:00:00+00,351330,21029059.,-82.980894,42.43095,782
-83.08495,42.432607,VPO2023-01298,1750,,SEVEN MILE,2023/08/17 04:00:00+00,518491,09007483-7,-83.08495,42.432607,783
-83.23072,42.357863,VPO2023-01299,19330,,JOY,2023/08/17 04:00:00+00,352805,22002782.,-83.23072,42.357863,784
-83.00458,42.439863,VPO2023-01300,19680,,hoover,2023/08/17 04:00:00+00,254517,21036311.,-83.00458,42.439863,785
-83.010994,42.369938,VPO2023-01301,4020,,BALDWIN,2023/08/17 04:00:00+00,344222,17011250.,-83.010994,42.369938,786
-83.011485,42.369839,VPO2023-01302,4027,,BALDWIN,2023/08/17 04:00:00+00,344032,17011571.,-83.011485,42.369839,787
-83.130864,42.4099,VPO2023-01303,3001,,PURITAN,2023/08/17 04:00:00+00,539401,12005409-10,-83.130864,42.4099,788
-83.196707,42.401339,VPO2023-01304,15303,,FENKELL,2023/08/17 04:00:00+00,351793,22010756.,-83.196707,42.401339,789
-83.21745,42.345594,VPO2023-01305,7353,,ASHTON,2023/08/17 04:00:00+00,164795,22075929.,-83.21745,42.345594,790
-82.961073,42.416513,VPO2023-01306,10880,,MOGUL,2023/08/17 04:00:00+00,303978,21069499.,-82.961073,42.416513,791
-83.022322,42.392017,VPO2023-01307,8618,,VAN DYKE,2023/08/17 04:00:00+00,540471,17009530.,-83.022322,42.392017,792
-83.210658,42.42577,VPO2023-01308,18469,,FERGUSON,2023/08/19 04:00:00+00,84439,22063676.,-83.210658,42.42577,793
-82.960358,42.449726,VPO2023-01309,15610,,EIGHT MILE,2023/08/19 04:00:00+00,535542,21028031-40,-82.960358,42.449726,794
-83.217048,42.347161,VPO2023-01310,7600,,ASHTON,2023/08/19 04:00:00+00,166503,22074730.,-83.217048,42.347161,795
-83.192704,42.36393,VPO2023-01311,9344,,COYLE,2023/08/19 04:00:00+00,199499,22044681.,-83.192704,42.36393,796
-83.257016,42.348118,VPO2023-01312,7709,,DOLPHIN,2023/08/19 04:00:00+00,167353,22115153.,-83.257016,42.348118,797
-83.164634,42.398996,VPO2023-01313,14880,,MENDOTA,2023/08/18 04:00:00+00,89859,16042847.,-83.164634,42.398996,798
-83.151,42.433898,VPO2023-01314,19345,,WOODINGHAM,2023/08/18 04:00:00+00,25145,16028686.,-83.151,42.433898,799
-83.190054,42.438799,VPO2023-01315,19952,,HUBBELL,2023/08/19 04:00:00+00,20008,22039502-3,-83.190054,42.438799,800
-83.18846,42.398712,VPO2023-01316,14916,,HUBBELL,2023/08/19 04:00:00+00,137626,22039015.,-83.18846,42.398712,801
-82.964758,42.395671,VPO2023-01317,5211,,LAKEVIEW,2023/08/25 04:00:00+00,309638,21052496.,-82.964758,42.395671,802
-83.164419,42.402184,VPO2023-01318,10401,,FENKELL,2023/08/19 04:00:00+00,536745,16007047-8,-83.164419,42.402184,803
-83.129849,42.301264,VPO2023-01319,8829,,RATHBONE,2023/08/19 04:00:00+00,47635,20002548.,-83.129849,42.301264,804
-83.265908,42.429238,VPO2023-01320,22610,,Seven Mile,2023/08/19 04:00:00+00,,,-83.265908,42.429238,805
-83.148079,42.410979,VPO2023-01321,16177,,TULLER,2023/08/24 04:00:00+00,101718,16027003-4,-83.148079,42.410979,806
-83.166884,42.363066,VPO2023-01324,9241,,MANOR,2023/08/20 04:00:00+00,197729,18018409.,-83.166884,42.363066,807
-83.150973,42.354373,VPO2023-01325,8203,,CLOVERLAWN,2023/08/20 04:00:00+00,187648,18014539.,-83.150973,42.354373,808
-83.166564,42.353074,VPO2023-01326,8101,,MANOR,2023/09/06 04:00:00+00,191898,18018523-4,-83.166564,42.353074,809
-83.166411,42.36532,VPO2023-01327,9398,,MANOR,2023/09/10 04:00:00+00,199258,18018162.,-83.166411,42.36532,810
-83.153438,42.375702,VPO2023-01328,11764,,CHERRYLAWN,2023/09/10 04:00:00+00,206535,16032571.,-83.153438,42.375702,811
-83.153945,42.376712,VPO2023-01329,12051,,CHERRYLAWN,2023/09/10 04:00:00+00,208819,16033567.,-83.153945,42.376712,812
-83.167128,42.382989,VPO2023-01330,12770,,MANOR,2023/09/10 04:00:00+00,214270,16045215.,-83.167128,42.382989,813
-83.168376,42.387503,VPO2023-01331,13614,,MEYERS,2023/09/10 04:00:00+00,180076,16045932.,-83.168376,42.387503,814
-83.152262,42.39222,VPO2023-01332,14223,,CLOVERLAWN,2023/09/10 04:00:00+00,184020,16031398.,-83.152262,42.39222,815
-83.153427,42.392011,VPO2023-01334,14211,,NORTHLAWN,2023/09/10 04:00:00+00,184040,16032410-1,-83.153427,42.392011,816
-83.153449,42.393098,VPO2023-01335,14287,,NORTHLAWN,2023/09/10 04:00:00+00,184049,16032399.,-83.153449,42.393098,817
-83.165122,42.384609,VPO2023-01336,13176,,PINEHURST,2023/09/10 04:00:00+00,214823,16043658.,-83.165122,42.384609,818
-83.15248,42.380062,VPO2023-01339,12366,,NORTHLAWN,2023/09/10 04:00:00+00,212372,16031611.,-83.15248,42.380062,819
-83.124604,42.40378,VPO2023-01341,15350,,LA SALLE,2023/09/10 04:00:00+00,12255,08010250.,-83.124604,42.40378,820
-83.164531,42.365359,VPO2023-01343,9401,,MENDOTA,2023/09/09 04:00:00+00,201727,18017314.,-83.164531,42.365359,821
-82.992406,42.444547,VPO2023-01345,20048,,WESTPHALIA,2023/09/09 04:00:00+00,172638,21031728.,-82.992406,42.444547,822
-83.168151,42.404944,VPO2023-01346,15460,,MANOR,2023/09/09 04:00:00+00,515006,16045347.,-83.168151,42.404944,823
-83.13898,42.326857,VPO2023-01347,4400,,TERNES,2023/08/21 04:00:00+00,158921,20008917.,-83.13898,42.326857,824
-83.078738,42.350618,VPO2023-01349,1533,,HANCOCK,2023/09/09 04:00:00+00,46092,08006034.,-83.078738,42.350618,825
-83.078738,42.350618,VPO2023-01350,1539,,HANCOCK,2023/09/09 04:00:00+00,46095,08006034.,-83.078738,42.350618,826
-83.237654,42.368005,VPO2023-01351,9961,,VAUGHAN,2023/09/09 04:00:00+00,180492,22098501.027,-83.237654,42.368005,827
-83.217112,42.335194,VPO2023-01352,6229,,ASHTON,2023/08/21 04:00:00+00,156862,22076012.,-83.217112,42.335194,828
-83.183878,42.393308,VPO2023-01355,14352,,ARDMORE,2023/08/22 04:00:00+00,129976,22034561.,-83.183878,42.393308,829
-83.157677,42.41361,VPO2023-01360,8735,,MARYGROVE,2023/08/23 04:00:00+00,94212,16007918.,-83.157677,42.41361,830
-83.127396,42.31254,VPO2023-01363,2365,,SPRINGWELLS,2023/08/23 04:00:00+00,36315,20005514.,-83.127396,42.31254,831
-82.991429,42.384612,VPO2023-01364,10601,EAST,WARREN,2023/08/24 04:00:00+00,535132,21002667.,-82.991429,42.384612,832
-83.041594,42.419325,VPO2023-01366,6001,EAST,MCNICHOLS,2023/08/24 04:00:00+00,349570,13007361-2,-83.041594,42.419325,833
-83.117975,42.390698,VPO2023-01367,2451,,GLENDALE,2023/08/24 04:00:00+00,39869,10003943.,-83.117975,42.390698,834
-82.964378,42.403163,VPO2023-01368,5999,,CHALMERS,2023/08/24 04:00:00+00,448438,21055910-7,-82.964378,42.403163,835
-82.955904,42.407528,VPO2023-01369,15321,,HARPER,2023/08/25 04:00:00+00,537975,21004446-51,-82.955904,42.407528,836
-83.059711,42.433385,VPO2023-01377,4401,E,7 MILE,2023/09/09 04:00:00+00,349269,13008494.,-83.059711,42.433385,837
-83.260149,42.439089,VPO2023-01378,20081,,COOLEY,2023/08/27 04:00:00+00,107154,22115297.012,-83.260149,42.439089,838
-83.127854,42.310511,VPO2023-01379,8052,,WHITTAKER,2023/09/19 04:00:00+00,34957,20004163.,-83.127854,42.310511,839
-83.027799,42.336502,VPO2023-01380,1935,,JEFFERSON,2023/09/10 04:00:00+00,472222,09000098-9,-83.027799,42.336502,840
-83.110871,42.328383,VPO2023-01381,5661,,OTIS,2023/09/22 04:00:00+00,151196,16001463.,-83.110871,42.328383,841
-83.122922,42.388842,VPO2023-01382,2907,,GLENDALE,2023/09/10 04:00:00+00,35451,12004154.006,-83.122922,42.388842,842
-83.122922,42.388842,VPO2023-01383,2903,,GLENDALE,2023/09/10 04:00:00+00,35450,12004154.006,-83.122922,42.388842,843
-82.994526,42.423121,VPO2023-01384,12632,E,MCNICHOLS,2023/09/10 04:00:00+00,535261,21020032.,-82.994526,42.423121,844
-83.148422,42.352856,VPO2023-01385,8060,,GREENLAWN,2023/09/10 04:00:00+00,191857,18013958.,-83.148422,42.352856,845
-83.089506,42.331152,VPO2023-01386,3333,,MICHIGAN,2023/09/13 04:00:00+00,539473,12000318.,-83.089506,42.331152,846
-82.945731,42.372707,VPO2023-01387,14241,EAST,JEFFERSON,2023/08/30 04:00:00+00,482847,21000588-9,-82.945731,42.372707,847
-83.167285,42.408048,VPO2023-01388,15824,,MONTE VISTA,2023/08/30 04:00:00+00,88815,16044659.,-83.167285,42.408048,848
-83.258616,42.424026,VPO2023-01389,18421,,LAHSER,2023/08/30 04:00:00+00,352504,22113666-9,-83.258616,42.424026,849
-83.082773,42.345537,VPO2023-01390,4348,,WABASH,2023/08/31 04:00:00+00,44965,08008859.,-83.082773,42.345537,850
-83.156103,42.424888,VPO2023-01391,18240,,OHIO,2023/09/10 04:00:00+00,9902,16033910.,-83.156103,42.424888,851
-82.967296,42.414483,VPO2023-01392,9686,,OUTER,2023/09/10 04:00:00+00,251768,21080992.,-82.967296,42.414483,852
-83.08711,42.441216,VPO2023-01393,19981,,RIOPELLE,2023/09/26 04:00:00+00,280638,09018732.,-83.08711,42.441216,853
-83.227483,42.353482,VPO2023-01400,8285,,WARWICK,2023/10/25 04:00:00+00,158521,22086647.,-83.227483,42.353482,854
-83.125771,42.367441,VPO2023-01404,4560,,JOY,2023/09/01 04:00:00+00,539743,14003407.,-83.125771,42.367441,855
-83.151489,42.418497,VPO2023-01405,17193,,GREENLAWN,2023/10/05 04:00:00+00,13467,16029869.,-83.151489,42.418497,856
-83.118071,42.398,VPO2023-01408,2203,,FORD,2023/09/10 04:00:00+00,41804,08004762.,-83.118071,42.398,857
-83.118405,42.387165,VPO2023-01409,12353,,LINWOOD,2023/09/10 04:00:00+00,537081,10007610-2,-83.118405,42.387165,858
-83.15375,42.383643,VPO2023-01410,12796,,CHERRYLAWN,2023/09/13 04:00:00+00,214556,16032653.,-83.15375,42.383643,859
-83.084769,42.446714,VPO2023-01412,1796,,8 MILE,2023/09/11 04:00:00+00,535751,09008225.,-83.084769,42.446714,860
-83.047973,42.437841,VPO2023-01413,19428,,BUFFALO,2023/10/30 04:00:00+00,291921,13014784-5,-83.047973,42.437841,861
-83.009694,42.365841,VPO2023-01414,7601,,MACK,2023/09/05 04:00:00+00,541085,17000340.,-83.009694,42.365841,862
-83.151668,42.40277,VPO2023-01415,8200,,FENKELL,2023/09/11 04:00:00+00,542318,16007221-2,-83.151668,42.40277,863
-83.142222,42.417853,VPO2023-01416,17145,,STOEPEL,2023/09/06 04:00:00+00,13248,16019466.,-83.142222,42.417853,864
-82.934929,42.419223,VPO2023-01418,9140,,WOODHALL,2023/09/11 04:00:00+00,295217,21075975.,-82.934929,42.419223,865
-83.079099,42.43878,VPO2023-01419,19664,,FLEMING,2023/09/06 04:00:00+00,286603,09014701.,-83.079099,42.43878,866
-83.079319,42.42662,VPO2023-01420,18057,,FLEMING,2023/09/06 04:00:00+00,290086,09014843.,-83.079319,42.42662,867
-82.994827,42.42301,VPO2023-01423,12600,EAST,MCNICHOLS,2023/09/06 04:00:00+00,535256,21020033.,-82.994827,42.42301,868
-83.00988,42.364701,VPO2023-01425,3496,,SHERIDAN,2023/09/27 04:00:00+00,338479,17012760.,-83.00988,42.364701,869
-83.261877,42.4178,VPO2023-01426,22345,,GRAND RIVER,2023/11/07 05:00:00+00,353240,22007496-8,-83.261877,42.4178,870
-83.199802,42.436919,VPO2023-01427,19780,,GREENFIELD,2023/09/11 04:00:00+00,60678,22050360-1,-83.199802,42.436919,871
-82.990247,42.416677,VPO2023-01428,12347,,GRATIOT,2023/09/07 04:00:00+00,542360,21028944.,-82.990247,42.416677,872
-82.938334,42.417596,VPO2023-01429,9158,,HARVARD,2023/09/11 04:00:00+00,295343,21074491.,-82.938334,42.417596,873
